City,Temp (F),Humidity (%),Clouds (Total),Wind Speed (mph),Latitude,Longitude
Trinidad,71.6,40,0,11.41,-33.52,-56.9
Nosy Varika,67.35,100,8,6.04,-20.58,48.53
Touros,79.14,79,0,17.11,-5.2,-35.46
Albany,69.73,59,75,10.29,42.65,-73.75
Salalah,75.2,83,0,3.36,17.01,54.1
Cidreira,58.17,100,92,15.1,-30.17,-50.22
Loukhi,53.85,79,32,14.76,66.08,33.04
Coxim,79.59,74,36,6.93,-18.5,-54.75
Los Llanos de Aridane,75.2,78,0,10.29,28.66,-17.92
Atuona,78.6,100,80,13.65,-9.8,-139.03
Ushuaia,37.2,60,75,4.7,-54.81,-68.31
Butaritari,84.81,100,44,7.72,3.07,172.79
Mataura,47.73,94,68,8.05,-46.19,168.86
Lorengau,81.3,100,64,8.05,-2.02,147.27
Taoudenni,91.65,22,20,10.74,22.68,-3.98
Punta Arenas,41.95,91,40,13.87,-53.16,-70.91
Provideniya,44.6,93,90,8.95,64.42,-173.23
Arraial do Cabo,77.0,83,92,9.17,-22.97,-42.02
Aykhal,28.2,80,0,2.68,65.95,111.51
Jamestown,34.14,78,0,2.57,-33.21,138.6
Tessalit,79.95,29,0,3.69,20.2,1.01
Zhezkazgan,46.2,95,56,14.54,47.8,67.71
Nizhniy Tsasuchey,36.57,63,48,9.62,50.52,115.13
Mahebourg,71.6,73,75,8.05,-20.41,57.7
Yellowknife,33.8,59,75,16.11,62.45,-114.38
Grindavik,38.35,74,75,27.51,63.84,-22.43
Bredasdorp,55.02,99,20,17.67,-34.53,20.04
Vaini,68.88,99,92,6.04,15.34,74.49
Coruripe,76.17,100,92,12.08,-10.12,-36.18
Iisaku,62.85,85,12,13.65,59.1,27.31
Namatanai,81.75,100,12,3.69,-3.66,152.44
Tomatlan,91.29,54,20,6.93,19.93,-105.25
Paldiski,60.8,87,75,13.87,59.35,24.08
Hasaki,65.34,100,75,9.17,35.73,140.83
Kieta,78.42,100,0,3.36,-6.22,155.63
Bluff,57.45,24,0,15.43,-23.58,149.07
Busselton,54.57,100,48,4.03,-33.64,115.35
Morgan City,90.21,66,75,5.82,29.7,-91.21
Abha,71.6,15,0,5.82,18.22,42.5
Avarua,77.0,53,40,14.99,-21.21,-159.78
Esperance,87.8,62,20,12.75,10.24,-61.45
Riberalta,87.8,62,75,5.82,-11.0,-66.08
Hobart,51.8,66,75,9.17,-42.88,147.33
Altamont,49.14,100,1,11.41,49.4,-98.5
Ahipara,57.54,97,92,6.93,-35.17,173.16
Namibe,67.53,98,100,2.91,-15.19,12.15
Chuy,61.32,78,0,7.61,-33.69,-53.46
Saint George,62.6,77,20,3.13,39.45,22.34
Port-Gentil,80.6,88,75,13.87,-0.72,8.78
Meadow Lake,39.2,93,90,9.17,54.13,-108.44
New Norfolk,51.8,66,75,9.17,-42.78,147.06
Thompson,46.4,45,90,13.87,55.74,-97.86
Bambous Virieux,71.6,73,75,8.05,-20.34,57.76
Hithadhoo,82.11,100,64,8.72,-0.6,73.08
Pangnirtung,33.8,69,75,9.17,66.15,-65.72
Shujalpur,77.07,65,92,7.94,23.4,76.72
Rikitea,72.66,100,68,13.53,-23.12,-134.97
Yulara,55.4,76,90,3.36,-25.24,130.99
Upernavik,30.09,100,0,5.48,72.79,-56.15
Saldanha,61.59,53,0,4.14,41.42,-6.55
Kavaratti,80.13,100,68,15.99,10.57,72.64
Elat,69.42,97,44,2.01,2.91,11.16
Trat,78.24,100,36,3.69,12.25,102.51
Hermanus,34.77,93,8,3.13,-34.42,19.24
Clyde River,33.8,86,75,12.75,70.47,-68.59
Balikpapan,80.6,83,40,8.05,-1.24,116.86
Yurty,31.71,87,0,3.91,56.05,97.64
Chicama,69.06,82,0,5.14,-7.84,-79.15
Leningradskiy,42.15,90,44,2.35,69.38,178.42
Sao Filipe,78.42,96,0,9.06,14.9,-24.5
Puerto Ayora,77.0,57,40,18.34,-0.74,-90.35
Nchelenge,65.37,70,0,1.9,-9.35,28.74
Port Elizabeth,73.02,75,90,9.17,39.31,-74.98
Saskylakh,26.22,88,36,3.69,71.97,114.09
Tamano,69.33,100,80,3.02,34.49,133.94
Mogzon,40.71,98,92,9.51,51.74,111.97
Dingle,75.36,97,80,2.35,11.0,122.67
Isla Mujeres,87.8,70,75,12.75,21.23,-86.73
Longyearbyen,32.0,100,75,31.09,78.22,15.63
Bonthe,76.44,99,92,4.03,7.53,-12.5
Port Alfred,59.07,100,44,9.73,-33.59,26.89
Mount Gambier,50.97,94,92,4.03,-37.83,140.78
Port Hardy,51.8,93,90,17.22,50.7,-127.42
Mar del Plata,53.22,64,92,4.03,-46.43,-67.52
Chachoengsao,80.6,83,40,3.36,13.69,101.06
Campbellsville,92.01,42,75,4.7,37.34,-85.34
Nabire,65.19,93,12,1.9,-3.36,135.5
Vestmanna,44.6,70,76,17.22,62.16,-7.17
Skegness,64.4,82,75,21.92,53.14,0.34
Castro,48.99,97,92,15.55,-42.48,-73.76
Santa Cruz del Norte,88.68,55,40,14.99,23.15,-81.92
Viedma,62.49,48,64,19.24,-40.81,-62.99
Havre-Saint-Pierre,48.2,70,90,5.82,50.23,-63.6
Bengbu,68.52,98,68,7.72,32.92,117.38
Burnie,52.59,100,56,15.43,-41.05,145.91
Faya,71.6,15,0,5.82,18.39,42.45
Shellbrook,46.4,87,90,9.17,53.22,-106.39
Qaanaaq,21.09,100,80,6.71,77.48,-69.36
Mugango,70.86,89,44,9.17,-1.69,33.7
Dakoro,79.05,58,0,3.58,14.51,6.76
Manjacaze,71.04,73,20,10.18,-24.71,33.88
Khatanga,37.92,92,92,12.41,71.98,102.47
Airai,57.45,83,0,2.01,-8.93,125.41
Bubaque,87.8,74,20,3.36,11.28,-15.83
Aberdeen,51.98,100,90,16.11,45.47,-98.49
Kruisfontein,52.05,100,44,6.04,-34.0,24.73
Cardston,50.2,81,90,16.11,49.2,-113.32
Ranchi,73.4,100,75,5.82,23.37,85.33
De Aar,41.25,24,76,5.7,-30.65,24.01
Nome,89.65,53,1,6.93,30.04,-94.42
Muros,62.6,93,75,3.36,42.77,-9.06
Dabat,55.83,90,20,1.68,12.98,37.77
Portobelo,86.0,74,40,9.17,9.55,-79.65
Tasiilaq,37.4,74,0,8.05,65.61,-37.64
Chokurdakh,35.67,100,92,4.47,70.62,147.9
San Juan del Sur,77.0,94,75,12.97,11.25,-85.87
Gurupi,84.54,67,36,4.36,-11.73,-49.07
Cherskiy,39.27,91,76,2.13,68.75,161.3
Jever,64.56,77,40,8.05,53.57,7.9
Kapaa,82.22,87,40,9.17,22.08,-159.32
Redcar,50.77,93,75,10.29,54.62,-1.06
Launceston,46.4,93,90,12.75,-41.43,147.14
Murovani Kurylivtsi,56.46,75,48,2.68,48.71,27.54
Kaeo,55.74,97,88,4.14,-35.1,173.78
Yar-Sale,48.45,100,92,5.37,66.83,70.83
Stonewall,51.8,57,90,17.22,50.13,-97.33
College,46.94,96,90,4.7,64.86,-147.8
Darhan,34.14,93,92,10.51,49.49,105.92
Ambon,66.2,93,75,16.11,47.55,-2.56
Mujiayingzi,44.85,41,0,4.14,42.12,118.78
San Luis Rio Colorado,93.97,44,75,0.67,32.47,-114.76
Dudinka,44.58,90,92,18.45,69.41,86.18
Lebu,44.49,84,0,2.57,8.96,38.73
Ellon,50.0,76,88,8.05,57.36,-2.07
Port Lincoln,50.7,100,12,6.49,-34.72,135.86
Rostovka,55.4,66,75,2.24,55.02,73.58
Hilo,82.94,77,75,16.11,19.71,-155.08
San Quintin,71.76,93,48,2.91,17.54,120.52
Severo-Kurilsk,49.89,100,64,9.62,50.68,156.12
Haines Junction,47.28,51,0,2.46,60.75,-137.51
Cayenne,87.8,70,0,13.87,4.94,-52.33
Pisco,67.62,78,0,4.47,-13.71,-76.2
Santa Vitoria do Palmar,61.32,78,0,7.61,-33.52,-53.37
Abrau-Dyurso,57.2,87,0,2.24,44.7,37.6
Manokwari,79.86,100,88,2.01,-0.87,134.08
Wewak,72.84,100,64,2.68,-3.55,143.63
Comodoro Rivadavia,51.8,66,75,9.17,-45.87,-67.48
Constitucion,77.0,41,75,6.93,23.99,-104.67
Georgetown,82.29,78,88,7.49,6.8,-58.16
Victoria,77.92,100,90,4.14,5.28,115.24
Aquidauana,81.12,76,8,7.38,-20.47,-55.78
Baruun-Urt,35.85,90,76,17.45,46.68,113.28
Dikson,40.89,93,92,20.13,73.51,80.55
Shelburne,64.4,82,20,8.05,44.08,-80.2
Bereda,66.2,82,20,9.17,43.27,-7.54
Cape Town,51.8,71,75,2.24,-33.93,18.42
Lovozero,50.97,89,36,11.07,68.01,35.02
Ribeira Grande,75.2,83,40,12.75,38.52,-28.7
Norman Wells,35.6,51,75,6.93,65.28,-126.83
Ampanihy,65.1,81,0,7.38,-24.69,44.75
Marsh Harbour,85.53,98,0,9.06,26.54,-77.06
Carnarvon,39.99,25,68,7.61,-30.97,22.13
Ilulissat,32.0,99,20,3.36,69.22,-51.1
Seoul,65.01,77,90,8.05,37.57,126.98
Sanlucar de Barrameda,76.01,73,0,4.7,36.78,-6.35
Calama,77.0,2,0,19.46,-22.46,-68.93
Tuktoyaktuk,33.8,69,40,13.87,69.44,-133.03
Great Bend,92.32,38,20,20.8,38.36,-98.78
Mitzic,74.64,92,64,2.68,0.78,11.55
Terrace,55.4,66,75,4.7,54.52,-128.61
Torbay,44.6,93,90,17.22,47.66,-52.73
Vila Franca do Campo,73.4,88,40,8.05,37.72,-25.43
Kropotkin,55.47,64,0,5.7,45.43,40.58
Lagoa,73.4,83,0,3.36,37.14,-8.45
Dzhubga,66.27,51,0,5.48,44.32,38.7
Maceio,78.8,74,20,13.87,-9.67,-35.74
Minas,66.2,37,0,5.82,-34.38,-55.24
Lulea,55.4,58,0,10.29,65.58,22.15
Sitka,90.12,49,12,19.69,37.17,-99.65
Miyang,54.21,90,0,3.02,24.4,103.44
Barrow,66.99,43,88,18.23,-38.31,-60.23
Santa Marta,93.2,59,75,13.87,11.24,-74.21
Raudeberg,50.88,76,92,27.51,61.99,5.14
Avera,93.07,39,1,4.7,33.19,-82.53
Vilhena,86.0,55,75,10.29,-12.74,-60.15
Wodonga,33.78,84,0,2.57,-36.12,146.89
Skelleftea,50.0,81,0,8.05,64.75,20.95
Nikolskoye,64.4,77,0,11.18,59.7,30.79
Kathua,70.14,69,0,3.36,32.38,75.52
Yerbogachen,38.46,91,68,2.57,61.28,108.01
Cascais,70.03,77,0,17.22,38.7,-9.42
Guarapari,78.8,78,40,18.34,-20.67,-40.5
Riyadh,91.4,10,0,3.36,24.63,46.72
Shenjiamen,79.05,99,80,5.7,29.96,122.3
Fortuna,75.2,83,0,3.36,38.18,-1.13
Kendari,66.63,91,0,0.89,-3.99,122.52
Fandriana,40.89,87,0,2.35,-20.24,47.38
Aden,85.26,99,0,8.61,12.79,45.03
Kodiak,95.0,37,1,19.46,39.95,-94.76
Malinovoye Ozero,58.35,54,12,11.07,51.68,79.77
Alcazar de San Juan,69.87,60,36,3.69,39.39,-3.21
Oktyabrskiy,57.22,76,0,2.24,55.61,37.97
Praia da Vitoria,75.2,78,20,15.77,38.73,-27.07
Mana,60.8,82,0,2.24,43.52,20.24
Xianshuigu,60.8,93,0,2.24,38.98,117.38
Milazzo,69.8,94,40,4.7,38.22,15.24
Saint-Philippe,61.25,67,75,3.36,45.36,-73.48
Morehead,87.98,51,20,3.58,38.18,-83.43
Amurzet,43.14,79,32,4.36,47.69,131.09
Hofn,45.57,97,92,20.02,64.25,-15.21
Marawi,68.88,98,88,0.89,8.0,124.29
Rome,70.32,94,0,4.7,41.89,12.48
Rutland,66.22,72,90,8.05,43.61,-72.97
Sloboda,45.84,97,64,2.57,57.03,59.56
Fort Madison,90.99,52,1,10.29,40.63,-91.32
East London,62.85,100,76,14.99,-33.02,27.91
Tabou,79.14,100,80,12.08,4.42,-7.36
Jinka,60.87,96,68,2.01,5.79,36.57
Coolum Beach,62.49,97,88,13.42,-26.53,153.09
Coahuayana,84.9,58,0,2.68,18.62,-100.35
Codrington,55.47,78,56,7.05,-28.95,153.24
Hit,77.34,27,0,2.68,33.64,42.83
Bathsheba,86.0,70,40,20.8,13.22,-59.52
Port Blair,81.93,98,68,13.53,11.67,92.75
Juneau,54.81,50,75,3.36,58.3,-134.42
Osa,48.0,95,92,7.72,57.28,55.46
Kudahuvadhoo,82.74,100,76,14.2,2.67,72.89
Lasa,77.47,88,20,4.7,34.92,32.53
Oranjemund,58.17,94,76,31.21,-28.55,16.43
Inhambane,72.48,96,8,11.07,-23.87,35.38
Karratha,54.12,36,0,6.49,-20.74,116.85
Barcelos,62.6,93,75,2.24,41.53,-8.62
Marsa Matruh,77.0,69,0,4.7,31.35,27.25
Bloomingdale,92.64,52,40,10.29,41.96,-88.08
Palmer,55.4,76,75,4.7,-34.85,139.16
Horsham,43.5,87,56,5.48,-36.71,142.2
Aguimes,75.2,78,75,16.11,27.91,-15.45
Biala Podlaska,64.11,61,0,7.94,52.03,23.12
Lompoc,81.81,22,1,4.7,34.64,-120.46
Panaba,89.58,63,68,9.62,21.28,-88.27
Kayes,81.75,64,8,3.69,14.44,-11.44
Cordoba,69.15,28,0,5.7,5.59,-73.79
Maiquetia,86.0,66,20,18.68,10.6,-66.95
Alekseyevsk,31.71,86,24,2.91,57.84,108.35
Adrar,93.2,18,0,13.87,27.87,-0.29
Tias,75.2,73,20,11.41,28.96,-13.65
Saint-Pierre,62.6,67,0,6.93,48.95,4.24
Ixtapa,87.8,79,75,9.17,20.71,-105.21
Port Hedland,57.2,71,0,5.82,-20.31,118.58
Vallenar,72.12,60,0,2.35,-28.58,-70.76
Omboue,77.43,100,92,13.09,-1.57,9.26
Souillac,68.0,77,0,3.36,45.6,-0.6
Santa Cruz,83.71,14,1,3.36,36.97,-122.03
Ponta do Sol,70.14,82,92,3.91,-20.63,-46.0
Cockburn Town,83.55,99,0,17.78,21.46,-71.14
Medicine Hat,57.2,54,40,4.7,50.04,-110.68
Makakilo City,83.98,85,75,6.93,21.35,-158.09
Kaitangata,48.09,91,64,9.73,-46.28,169.85
Akdepe,57.24,62,0,6.93,42.05,59.39
Port Moresby,75.2,88,40,17.11,-9.47,147.16
Batemans Bay,45.93,100,0,3.02,-35.71,150.18
Husavik,53.13,75,80,14.09,50.56,-96.99
Bellevue,61.43,62,75,5.82,47.61,-122.19
Vondrozo,57.72,96,0,4.47,-22.82,47.32
Alamosa,64.94,54,1,6.93,37.47,-105.87
Bac Giang,77.0,100,0,5.82,21.27,106.2
Faanui,74.1,100,92,15.77,-16.48,-151.75
San Matias,77.0,69,75,9.17,13.97,-86.63
Boa Vista,91.4,55,75,6.93,2.82,-60.67
Narsaq,42.8,56,0,9.17,60.91,-46.05
Itoman,82.4,78,40,3.36,26.12,127.67
Uetze,64.78,67,75,8.5,52.46,10.2
Tyrma,37.2,83,12,2.13,50.04,132.17
San Juan,87.37,61,40,17.22,18.47,-66.12
Swan Hill,43.41,88,0,3.13,-35.34,143.56
Belaya Gora,35.94,98,88,5.03,68.54,146.19
Ostrow Mazowiecka,65.55,64,0,8.61,52.8,21.9
Tiksi,24.6,97,36,1.57,71.64,128.87
Srednekolymsk,36.75,99,92,4.36,67.46,153.71
Flinders,42.8,75,0,9.17,-34.58,150.85
Ukiah,82.94,16,1,3.36,39.15,-123.21
San Policarpo,75.99,100,44,4.7,12.18,125.51
Unity,54.84,57,80,6.38,52.44,-109.15
Amarillo,88.59,31,20,19.46,35.21,-101.83
Lifford,48.2,87,40,9.17,54.83,-7.48
Tuatapere,47.28,100,8,9.62,-46.13,167.69
Alta Floresta,95.0,41,20,4.7,-9.87,-56.08
Jackson,95.27,42,20,5.82,35.61,-88.82
Clarksburg,81.09,65,75,6.93,39.24,-77.28
San Carlos de Bariloche,50.0,87,40,27.51,-41.13,-71.31
Portland,65.57,50,40,3.36,45.52,-122.67
Kirakira,80.76,100,48,3.47,-10.46,161.92
Poum,53.4,76,44,1.45,41.28,20.71
Darvel,49.35,71,40,2.01,55.61,-4.28
Mau,78.24,92,8,11.52,25.94,83.57
Ohara,68.0,94,75,6.93,35.12,135.83
Sobolevo,52.86,83,8,2.68,54.43,31.9
Kostek,51.6,82,0,2.91,43.34,46.85
Liepaja,63.63,93,0,4.7,56.52,21.02
Chiredzi,80.67,55,12,13.42,-21.05,31.67
Ulagan,20.37,72,0,2.46,50.63,87.96
Isangel,72.48,100,0,10.63,-19.55,169.27
Changchun,55.4,76,0,4.47,43.88,125.32
Pucallpa,90.75,53,12,2.35,-8.38,-74.54
Urengoy,46.11,66,12,12.75,65.96,78.37
Tiarei,80.6,69,20,8.05,-17.53,-149.33
Saint-Augustin,66.02,77,0,3.36,44.83,-0.61
Rodrigues Alves,75.2,88,0,4.7,-7.74,-72.65
Jacareacanga,93.2,56,20,4.7,-6.22,-57.76
Fort Nelson,37.4,34,75,6.93,58.81,-122.69
Gamba,28.65,83,88,2.57,28.28,88.52
Umea,55.4,58,0,11.41,63.83,20.26
Kalat,41.97,37,0,1.68,29.03,66.58
Taggia,78.8,57,40,8.05,43.86,7.85
Culleredo,64.24,82,20,9.17,43.29,-8.39
Antsohihy,72.48,55,0,14.2,-14.88,47.99
Malanje,66.72,97,0,4.47,-9.54,16.35
Aklavik,38.46,47,5,12.75,68.22,-135.01
Guaruja,71.08,83,0,2.24,-23.99,-46.26
Praia,65.82,96,88,3.36,-20.25,-43.81
Ibia,77.52,94,80,7.94,5.18,6.32
Bethel,53.06,89,90,10.29,60.79,-161.76
Nuevo Progreso,92.1,48,40,14.99,26.05,-97.95
Nelson Bay,44.6,93,44,10.29,-32.72,152.14
Buta,73.92,92,12,2.01,2.79,24.73
Tenenkou,79.77,81,0,2.46,14.46,-4.91
Yafran,73.74,44,0,6.93,32.06,12.53
Salinopolis,82.2,91,0,20.47,-0.61,-47.36
Svetlyy Yar,60.8,72,0,6.71,48.48,44.79
Kalmunai,75.72,95,48,11.52,7.42,81.82
Celestun,84.9,98,12,4.7,20.87,-90.4
Paamiut,39.09,100,80,18.68,61.99,-49.67
Phalaborwa,62.6,72,92,10.29,-23.95,31.14
Meulaboh,79.32,100,32,3.69,4.14,96.13
Concordia,67.53,70,24,8.61,-31.4,-58.02
San Cristobal,62.6,45,75,12.75,-0.39,-78.55
Samarai,76.62,100,92,12.41,-10.62,150.67
Kokopo,79.23,100,0,2.68,-4.34,152.27
Licheng,67.8,91,0,2.46,24.5,110.4
Waddan,71.94,48,0,7.05,29.16,16.14
Birao,73.92,83,24,2.91,10.3,22.78
Port Hawkesbury,53.6,62,90,3.36,45.62,-61.36
Pangai,78.8,83,20,6.93,-19.8,-174.35
Paharpur,75.72,62,0,2.57,32.1,70.97
Ocampo,78.15,97,56,2.01,13.56,123.37
Vawkavysk,59.7,81,0,3.02,53.15,24.45
Lazurne,57.27,72,0,2.68,46.77,34.99
Madera,83.71,30,1,5.82,36.96,-120.06
Coihueco,50.0,93,90,19.46,-36.63,-71.83
North Battleford,51.8,71,90,11.41,52.78,-108.3
Tygda,46.29,87,92,7.05,53.11,126.33
Turiacu,80.49,91,48,3.69,-5.01,-63.0
Flin Flon,48.2,57,75,6.93,54.77,-101.88
Sabzevar,50.07,71,32,2.68,36.21,57.68
Nanortalik,37.65,97,88,17.0,60.14,-45.24
Bintulu,77.0,94,75,8.05,3.17,113.03
La Paz,87.8,55,75,9.17,24.15,-110.32
Gilbues,94.17,16,0,11.63,-9.83,-45.34
Wufeng,79.99,94,75,4.7,24.63,121.12
Alexandria,92.08,47,40,4.7,31.31,-92.44
Surin,71.4,94,36,2.68,14.88,103.49
Sao Joao da Barra,75.09,94,56,22.26,-21.64,-41.05
Mogapi,70.59,48,0,19.13,-22.32,27.84
Chibombo,69.87,36,0,9.73,-14.68,28.09
Sokolo,84.72,53,0,9.51,14.74,-6.12
Sao Mateus,76.53,89,0,14.54,-18.72,-39.86
Kuruman,60.24,26,76,6.15,-27.46,23.43
Hualmay,68.16,68,24,5.14,-11.1,-77.61
Naze,77.52,93,64,7.72,5.43,7.07
Svetlaya,55.2,100,0,8.61,46.54,138.33
Adre,71.13,69,24,2.46,13.47,22.2
Tagusao,77.61,100,32,3.58,9.19,117.81
Mastic Beach,70.07,67,75,5.82,40.77,-72.85
Alofi,78.8,83,75,10.29,-19.06,-169.92
Ialibu,55.4,100,40,3.36,-6.28,143.99
Nyagan,45.57,92,32,2.57,62.14,65.43
Gayeri,81.3,59,8,8.61,12.65,0.49
Vanavara,35.31,98,80,2.46,60.35,102.28
Perth,49.53,87,0,2.24,56.4,-3.43
San Patricio,71.94,92,56,3.02,-26.98,-56.83
Laguna,87.8,62,75,5.82,27.52,-110.01
Lapeer,71.74,80,40,9.17,43.05,-83.32
Lira,65.46,93,68,2.35,2.25,32.9
Senneterre,62.6,51,90,2.91,48.39,-77.24
Wuda,39.63,26,0,7.05,39.5,106.72
Ambad,76.17,67,56,10.96,19.61,75.79
Saint Anthony,62.98,5,1,16.11,43.97,-111.68
Kyshtovka,46.29,68,20,10.63,56.56,76.62
Okhotsk,46.74,100,88,2.68,59.36,143.24
Zyryanka,37.65,98,92,5.93,65.73,150.89
Ankazoabo,62.58,43,0,6.6,-22.29,44.51
Porto Walter,92.82,54,32,2.68,-8.27,-72.74
Beroroha,64.2,44,0,4.92,-21.68,45.17
Jalu,73.38,48,0,5.7,29.03,21.55
Fuente de Oro,85.89,47,0,2.57,3.46,-73.62
Zomba,80.76,36,88,8.72,-15.39,35.33
Vostok,35.13,83,0,3.13,46.45,135.83
Kiunga,71.04,90,64,2.68,-6.12,141.3
Auch,70.74,72,0,5.59,43.65,0.59
Hervey Bay,65.91,96,0,13.42,-25.3,152.85
Sistranda,50.0,76,20,8.05,63.73,8.83
Anchorage,54.59,81,75,3.36,61.22,-149.89
Nanakuli,83.98,85,75,6.93,21.39,-158.15
Senador Jose Porfirio,90.3,51,0,6.38,-2.59,-51.95
Pindushi,59.34,86,92,11.63,62.92,34.58
Geraldton,51.8,71,90,10.29,49.72,-86.95
Yatou,80.67,97,56,9.4,3.63,9.81
Shahreza,49.53,78,20,3.02,32.01,51.87
Gwadar,75.18,98,0,5.48,25.12,62.33
Shingu,76.8,100,20,10.74,33.72,135.99
Baykit,30.36,90,76,1.34,61.68,96.39
Grants Pass,65.25,51,1,2.35,42.44,-123.33
Santa Rosalia,72.95,69,40,10.29,38.07,13.27
Bosaso,81.84,100,0,6.04,11.28,49.18
Stephenville,87.48,57,1,6.93,32.22,-98.2
Abonnema,75.54,95,76,5.14,4.71,6.79
Novouzensk,58.17,90,0,9.17,50.46,48.14
Kuchera,77.07,51,8,5.03,26.99,73.97
Peniche,65.95,77,0,17.22,39.36,-9.38
Dubbo,39.2,64,0,5.82,-32.25,148.6
Fredericksburg,81.57,67,40,4.7,38.3,-77.46
Lisakovsk,52.77,76,92,9.06,52.55,62.49
Teguldet,41.97,71,0,6.38,57.31,88.17
Kintinku,69.69,65,0,14.2,-5.89,35.22
Parabel,48.09,66,12,8.72,58.71,81.5
Bull Savanna,90.57,46,8,8.05,17.89,-77.59
Katobu,76.89,100,0,5.7,-4.94,122.53
Vaitape,74.82,100,92,18.01,-16.52,-151.75
Mecca,75.09,79,0,2.68,21.43,39.83
Riviere-au-Renard,53.6,62,75,12.75,49.0,-64.4
Bouna,76.17,83,56,5.93,9.27,-3.0
Padang,81.3,100,24,6.04,-0.92,100.36
Lata,51.69,71,0,2.35,30.78,78.62
Fort Myers Beach,84.78,79,75,11.41,26.45,-81.95
Chegdomyn,32.7,80,0,4.03,51.13,133.04
Moron,87.8,55,75,3.58,10.49,-68.2
Pevek,43.95,99,48,10.07,69.7,170.27
Xihe,42.06,93,12,2.68,34.02,105.29
Taft,75.99,100,44,4.7,11.9,125.42
Fomboni,78.96,100,0,9.06,-12.28,43.74
Caravelas,76.89,99,0,17.0,-17.73,-39.27
Port Macquarie,48.2,81,0,6.93,-31.43,152.91
Babushkin,40.53,100,88,15.1,51.72,105.86
Mogadishu,77.97,100,76,13.53,2.04,45.34
Rawson,63.3,40,76,10.63,-43.3,-65.11
Mackay,34.83,100,90,8.05,53.65,-115.58
ChengDe,50.7,96,8,2.13,40.97,117.93
Buchanan,77.0,94,75,3.58,5.88,-10.05
Richards Bay,58.8,95,8,5.93,-28.77,32.06
Koulikoro,86.0,70,0,2.24,12.86,-7.56
Hobyo,75.9,86,0,23.15,5.35,48.53
Marzuq,57.45,72,0,3.02,14.4,46.47
Palora,73.29,70,24,3.91,-1.7,-77.97
Sarangpur,73.56,66,92,5.14,23.57,76.47
Batagay,30.0,82,44,2.68,67.65,134.64
Kasempa,63.93,32,0,6.38,-13.46,25.83
Verkhnyaya Inta,42.6,99,92,2.35,65.99,60.32
Matara,64.2,26,36,2.91,-13.74,-72.9
Hoa Binh,77.0,100,0,5.82,20.81,105.34
Aras,52.95,25,0,4.92,14.28,44.38
Nyurba,32.07,87,8,2.46,63.29,118.35
Talnakh,43.14,88,92,15.99,69.49,88.39
Awjilah,71.13,51,0,3.13,29.14,21.3
Nioro,82.47,74,0,4.7,13.79,-15.05
Bacungan,79.41,100,12,6.6,9.87,118.73
Bontang,79.59,100,44,10.51,0.12,117.47
Popondetta,68.79,92,36,2.01,-8.77,148.24
Gat,84.81,63,0,10.96,14.69,-16.54
Rio Gallegos,42.8,56,40,6.93,-51.62,-69.22
Labuhan,69.87,95,56,2.35,-2.54,115.51
Cotonou,78.24,88,0,5.7,6.37,2.43
Primorsko-Akhtarsk,62.31,100,0,3.91,46.05,38.18
Puerto Escondido,86.0,70,75,11.41,15.86,-97.07
Ponta Delgada,73.4,88,40,8.05,37.73,-25.67
Vikesa,51.8,76,40,6.93,58.64,6.09
Shubarshi,44.04,72,0,9.06,48.59,57.19
Caluquembe,61.5,71,12,3.13,-13.78,14.68
Phanom Sarakham,80.6,83,40,3.36,13.75,101.35
Ossora,49.62,100,92,10.18,59.24,163.07
Champasak,71.85,97,56,2.57,14.89,105.88
Maltahohe,64.47,23,68,7.16,-24.83,16.98
Vagur,50.07,100,8,17.22,61.47,-6.81
Klaksvik,44.6,70,64,17.22,62.23,-6.59
Griffith,41.43,79,0,2.68,-34.29,146.06
Klyuchi,54.39,55,12,11.74,52.25,79.17
Kralendijk,87.8,66,20,23.04,12.15,-68.27
Ballina,47.37,88,64,7.61,54.11,-9.15
Winnemucca,71.96,4,1,3.36,40.97,-117.74
Henties Bay,57.36,93,44,4.7,-22.12,14.28
Tiznit,68.07,93,32,3.36,29.7,-9.73
Warri,77.79,90,64,7.94,5.52,5.75
Esmeraldas,75.2,60,75,4.7,-19.76,-44.31
Lerwick,47.32,87,88,8.05,60.15,-1.15
Antalaha,69.69,94,64,10.18,-14.9,50.28
Sola,59.0,58,75,6.93,62.78,29.36
Suluq,70.05,64,0,9.4,31.67,20.25
Auki,75.81,75,0,2.91,12.18,6.51
Loanda,75.0,88,36,7.05,-22.93,-53.14
Bolshoye Murashkino,60.06,88,80,12.97,55.78,44.78
Nerja,73.44,73,20,4.7,36.75,-3.88
Aksarka,41.79,99,36,2.68,66.56,67.8
Yueyang,66.81,95,80,7.38,29.36,113.12
Snasa,48.2,87,40,5.82,64.25,12.38
Mahibadhoo,84.27,98,92,15.77,3.78,72.97
Mizan Teferi,61.95,91,48,2.46,6.99,35.58
Inongo,78.51,75,20,3.36,-1.93,18.29
Victor Harbor,55.4,76,75,4.7,-35.55,138.62
Nizwa,66.9,40,0,1.45,22.93,57.53
Marystown,50.88,86,0,14.76,47.17,-55.16
Lincoln,64.4,82,75,21.92,53.23,-0.54
High River,46.4,81,90,11.41,50.58,-113.86
Yamada,66.2,93,75,2.24,36.58,137.08
Stokmarknes,49.96,76,75,12.75,68.56,14.91
Ust-Nera,28.2,94,80,2.35,64.57,143.24
Qarqin,67.17,45,0,10.96,37.41,66.03
Lewistown,92.1,55,1,10.29,40.39,-90.15
Waipawa,54.93,75,36,8.39,-39.94,176.59
Careiro da Varzea,92.26,56,40,3.36,-3.2,-59.81
Vanimo,81.75,100,48,7.49,-2.67,141.3
Mandalgovi,32.61,58,0,19.01,45.76,106.27
Bonnyville,41.0,65,75,11.41,54.27,-110.74
Waitati,45.12,92,92,8.95,-45.75,170.57
Kalisz,67.62,61,0,7.72,51.76,18.08
Komsomolskiy,41.25,91,32,7.49,67.55,63.78
Ingraj Bazar,74.64,97,92,13.42,25.0,88.15
Saint-Joseph,73.9,69,75,3.36,43.56,6.97
Susanville,71.6,17,1,6.93,40.42,-120.65
Santiago del Estero,80.85,44,0,8.72,-27.8,-64.26
Koslan,36.39,92,0,3.69,63.46,48.9
Tifton,93.27,35,40,6.93,31.45,-83.51
Muzhi,46.65,97,100,5.03,65.4,64.7
Ponca City,91.76,44,20,24.16,36.73,-97.07
Moa,85.89,59,12,6.93,20.66,-74.95
Payo,76.35,90,88,3.69,-3.75,103.64
Kouqian,54.3,100,88,1.57,43.66,126.5
Udachnyy,30.27,86,36,4.7,66.42,112.4
Sulangan,81.12,100,76,9.62,11.14,123.72
Temir,43.41,76,0,9.73,49.14,57.13
The Valley,86.94,66,20,13.87,18.22,-63.06
Nantucket,64.72,72,75,10.29,41.28,-70.1
Ostrov,60.8,82,0,6.71,57.34,28.36
Ostrovnoy,50.07,91,68,20.8,68.05,39.51
Lianzhou,67.8,91,8,1.68,24.79,112.38
Murgab,66.2,42,40,4.7,37.5,61.97
Honiara,77.0,94,40,2.91,-9.43,159.96
La Libertad,57.9,16,0,4.7,-16.38,-71.56
Callaway,54.19,100,90,9.17,46.98,-95.91
Vestmannaeyjar,42.8,89,0,23.04,63.44,-20.27
Anaconda,53.96,7,40,3.36,46.13,-112.94
Bambanglipuro,72.39,86,92,2.46,-7.95,110.28
Taltal,70.68,65,0,3.91,-25.41,-70.49
Eenhana,70.59,23,24,9.51,-17.48,16.34
Whitley Bay,48.81,100,75,5.82,55.04,-1.44
Sao Jose da Coroa Grande,75.27,95,80,9.17,-8.9,-35.15
Harbour Breton,52.14,100,0,14.76,47.48,-55.8
Seydi,79.41,65,48,3.47,13.34,7.75
Chernyshevskiy,38.82,85,88,2.46,63.01,112.47
Tieli,55.29,67,32,9.4,46.98,128.05
Puerto Madero,70.41,49,0,9.17,-34.61,-58.36
Derzhavinsk,48.36,91,68,10.18,51.1,66.31
Kyaikto,73.2,100,12,2.35,17.31,97.01
Chapais,59.0,51,90,6.93,49.78,-74.86
Weligama,73.92,100,92,10.07,5.97,80.42
Serowe,69.96,47,0,19.8,-22.4,26.7
Sinnamary,82.65,92,32,13.2,5.38,-52.96
Develi,55.4,47,0,1.68,38.39,35.49
Mosquera,68.0,34,20,18.34,4.71,-74.23
Dzilam Gonzalez,90.84,59,64,8.16,21.28,-88.93
Winsum,61.99,77,64,5.82,53.33,6.52
Zalesovo,42.15,75,44,6.93,54.0,84.74
Ishigaki,83.46,100,92,6.6,24.34,124.16
Russas,85.71,53,0,15.21,-4.93,-37.97
Quang Ngai,69.87,95,20,2.35,15.12,108.8
Lithakia,71.82,68,0,4.36,37.72,20.83
Sept-Iles,48.2,76,75,6.93,50.2,-66.38
Sereflikochisar,54.75,95,12,3.69,38.94,33.54
Morondava,71.67,100,0,4.92,-20.3,44.28
Mao,86.05,78,75,18.34,19.55,-71.08
Jambi,73.65,97,68,2.57,-1.6,103.62
Awash,63.3,90,68,2.91,8.99,40.17
Otjimbingwe,64.92,51,44,2.57,-22.35,16.13
Aranda de Duero,59.97,73,12,3.02,41.67,-3.69
Pleshanovo,60.8,82,0,6.71,57.46,28.17
Ambilobe,71.13,58,0,11.63,-13.19,49.05
Iqaluit,33.8,74,90,13.87,63.75,-68.52
La Orilla,88.14,71,0,9.06,18.0,-102.23
Manggar,75.9,99,48,4.92,-2.88,108.27
Ussuriysk,42.8,100,20,2.24,43.8,131.95
Sovkhoznyy,57.2,87,0,2.24,45.29,38.11
Tatvan,58.71,61,80,2.91,38.5,42.28
Olga,80.35,62,20,6.93,34.11,-118.17
Kuala Terengganu,78.8,88,75,3.36,5.33,103.14
Mattru,72.57,100,92,8.95,7.62,-11.83
Talaya,39.9,75,0,7.94,55.79,84.89
Wattegama,68.61,98,92,6.38,7.35,80.68
Kovdor,48.99,92,80,10.4,67.56,30.47
Mocorito,81.21,92,76,5.37,25.48,-107.92
Dali,51.87,100,8,1.9,25.6,100.24
Bismarck,50.0,92,90,10.29,46.81,-100.78
Beringovskiy,48.54,95,20,7.49,63.05,179.32
Arlit,85.8,21,56,5.14,18.74,7.39
Sivaki,47.28,87,92,7.49,52.63,126.75
Sorong,80.58,100,68,13.42,-0.86,131.25
Arki,67.35,59,48,3.91,31.15,76.97
Sabha,70.05,34,0,5.14,27.03,14.43
Kota Belud,73.4,100,75,3.36,6.35,116.43
Lumby,60.8,51,40,2.24,50.25,-118.97
Primorsk,61.68,79,56,14.99,60.37,28.62
Petrivka,56.91,77,0,2.57,48.39,37.78
Sesquile,68.0,34,20,18.34,5.05,-73.8
San Joaquin,75.36,97,80,2.35,10.59,122.14
Gorokhovets,55.4,93,0,6.71,56.21,42.68
Sakaiminato,68.0,88,90,1.12,35.55,133.23
Santona,69.01,100,64,2.24,43.44,-3.46
Kavieng,81.84,100,12,3.47,-2.57,150.8
Mumford,77.25,90,0,8.61,5.26,-0.76
Sangre Grande,86.77,62,20,12.75,10.59,-61.13
Lazaro Cardenas,78.8,54,75,20.8,28.39,-105.62
Mitsamiouli,75.2,94,75,2.24,-11.38,43.28
East Stroudsburg,70.27,77,90,4.7,41.0,-75.18
Camacha,72.61,78,40,8.05,33.08,-16.33
Sunndalsora,55.42,50,0,23.04,62.68,8.55
Arman,44.6,100,75,2.24,59.7,150.17
Ancud,50.25,95,92,15.21,-41.87,-73.83
Brae,47.91,87,92,8.05,60.4,-1.35
Itarema,83.28,62,0,19.46,-2.92,-39.92
Iberia,96.33,35,36,2.91,-11.41,-69.49
Livingstonia,69.33,81,64,4.47,-10.61,34.11
Kilindoni,79.05,99,80,14.2,-7.91,39.67
Melfi,57.54,96,32,2.13,41.0,15.66
Ilhabela,68.52,100,76,1.57,-23.78,-45.36
Dubai,87.66,63,0,4.7,25.27,55.3
Mersing,74.73,100,64,2.57,2.43,103.84
Fukue,68.0,94,75,6.93,35.03,136.69
Jieshi,77.25,100,32,2.46,22.82,115.83
Henstedt-Ulzburg,62.04,68,0,6.93,53.79,9.98
Cairns,60.8,82,40,3.36,-16.92,145.77
Orikum,76.35,97,0,8.61,40.33,19.47
Honningsvag,50.72,81,75,13.87,70.98,25.97
Botwood,42.8,70,75,11.41,49.14,-55.34
Itambe,77.0,47,0,11.41,-15.24,-40.62
Juegang,73.11,100,88,14.2,32.31,121.18
Merta,78.6,57,20,4.14,26.65,74.03
Gizo,78.8,65,20,3.36,31.8,34.94
Galveston,90.61,46,40,16.11,40.58,-86.19
Katsuura,71.6,100,90,3.36,33.93,134.5
Las Vegas,87.98,25,1,8.05,36.17,-115.15
Sioux Lookout,52.54,71,90,6.93,50.1,-91.92
Boksitogorsk,65.19,70,44,8.05,59.47,33.85
Bijar,44.49,78,0,2.13,35.87,47.6
Sudislavl,54.75,92,12,7.61,57.88,41.71
Luderitz,58.17,66,8,21.14,-26.65,15.16
Kholmogory,53.6,93,90,11.18,64.23,41.65
Prince Rupert,59.0,67,1,5.82,54.32,-130.32
Esna,59.34,83,0,4.47,45.2,27.57
Skjervoy,46.4,100,40,3.36,70.03,20.97
Valdivia,55.4,82,90,12.75,-39.81,-73.25
Otane,51.42,86,56,3.69,-39.89,176.62
Tawau,73.4,94,75,1.34,4.26,117.89
Joshimath,28.74,99,0,0.56,30.57,79.57
Port Lavaca,87.28,71,1,11.41,28.61,-96.63
Santa Rita,87.8,55,75,2.91,10.21,-67.56
Havoysund,48.67,93,0,9.17,71.0,24.66
Sao Miguel do Araguaia,85.35,75,8,4.14,-13.28,-50.16
Tevaitoa,74.64,100,100,17.45,-16.78,-151.5
Obigarm,35.76,92,92,1.12,38.72,69.71
Carbonia,71.6,88,20,6.93,39.17,8.53
Rabo de Peixe,73.4,88,40,8.05,37.8,-25.58
Sanawad,78.69,56,64,8.05,22.17,76.08
Ternate,77.0,100,75,2.24,14.29,120.72
Opuwo,62.31,42,0,2.68,-18.06,13.84
Bilma,83.37,22,48,2.57,18.69,12.92
Cruzeiro do Sul,75.2,88,0,4.7,-7.63,-72.67
Luanda,72.03,92,0,4.92,-8.83,13.24
Charters Towers,59.52,81,0,5.14,-20.07,146.27
Coihaique,43.43,93,90,5.82,-45.58,-72.07
Nara,68.95,94,75,6.93,34.68,135.8
Teguise,75.2,73,20,11.41,29.06,-13.56
Acapulco,87.8,74,75,5.82,16.86,-99.88
Khargupur,78.33,81,92,7.72,27.38,81.99
El Sauzal,82.4,34,0,6.93,-24.3,-64.96
Morant Bay,91.4,52,40,25.28,17.88,-76.41
Kapit,73.02,94,56,2.13,2.02,112.94
Moundsville,82.94,65,1,4.7,39.92,-80.74
Lere,76.8,77,0,3.58,9.66,14.23
Riohacha,86.0,79,40,12.75,11.54,-72.91
Mengyin,56.37,86,36,2.57,35.71,117.93
Falakata,76.89,97,92,4.14,26.52,89.2
Natal,80.6,65,40,18.34,-5.81,-35.21
Nouadhibou,80.6,65,32,16.11,20.93,-17.03
Tsurugi,71.6,100,90,3.36,33.97,134.05
Vila Velha,82.4,69,0,13.87,-3.71,-38.6
Mikuni,66.2,93,75,2.24,36.22,136.15
Hornepayne,55.47,68,88,7.16,49.22,-84.78
Priargunsk,33.51,74,88,4.03,50.37,119.09
Mount Isa,64.4,16,0,14.99,-20.73,139.49
Sao Lourenco do Sul,68.0,52,0,10.29,-31.37,-51.98
Muravlenko,40.62,72,24,9.4,63.79,74.5
Tabuk,69.24,97,68,1.9,17.41,121.44
Sibolga,69.33,100,64,2.01,1.74,98.78
Saraj,60.8,63,0,1.12,42.0,21.33
Nishihara,62.22,93,75,18.34,35.74,139.53
Neiafu,75.2,88,40,6.93,-18.65,-173.98
Aljezur,68.34,94,0,16.55,37.31,-8.8
Cabo San Lucas,86.4,78,75,9.17,22.89,-109.91
Raniganj,75.72,97,92,14.99,23.61,87.12
Ribeira Brava,73.4,64,20,9.17,32.65,-17.07
Garmsar,58.35,68,0,2.68,35.22,52.34
Aromashevo,50.52,81,76,7.72,56.86,68.64
Zhigansk,29.37,96,0,3.47,66.77,123.37
Edelira,69.6,95,80,2.13,-26.75,-55.27
West Helena,94.1,39,1,8.05,34.55,-90.64
Porto de Moz,89.85,50,20,7.05,-1.75,-52.24
Kukmor,47.19,89,68,3.02,56.19,50.9
Sorland,48.2,87,75,13.87,67.67,12.69
Desenzano del Garda,69.98,82,0,3.36,45.47,10.54
Amethi,78.8,88,76,8.05,26.76,81.16
Daru,70.32,98,76,5.03,7.99,-10.85
Biak,75.63,94,68,6.93,-0.91,122.88
Severo-Yeniseyskiy,35.94,95,8,2.13,60.37,93.04
Sattenapalle,71.67,99,92,7.94,16.39,80.15
Sabang,78.15,97,56,2.01,13.72,123.58
Harper,80.85,72,75,6.93,30.3,-99.24
Kindu,70.59,94,24,1.9,-2.95,25.92
Itamaraca,78.8,74,75,11.41,-7.75,-34.83
Muromtsevo,48.81,66,36,9.62,56.37,75.24
Chum Phae,67.53,89,12,2.57,16.54,102.1
Sao Francisco,75.2,64,40,5.82,-25.65,-53.85
Belaya Kholunitsa,33.69,86,8,2.91,58.84,50.85
Santa Lucia,65.37,100,92,5.59,39.93,9.66
Cururupu,82.56,68,0,11.97,-1.82,-44.87
Perama,66.2,93,20,1.57,39.69,20.85
Egvekinot,41.7,99,88,2.91,66.32,-179.17
Paris,70.32,53,0,10.29,48.86,2.35
Gravdal,54.57,76,40,11.41,59.79,5.78
Frederikshavn,55.65,100,92,11.18,57.44,10.53
Bras-Panon,67.05,72,0,10.29,-21.0,55.68
Kidal,83.28,31,0,6.15,18.44,1.41
Broome,66.52,72,92,20.8,52.47,1.45
Miquelon,51.8,57,75,19.46,47.1,-56.38
Vangaindrano,59.97,95,0,4.03,-23.35,47.6
Karatuzskoye,32.34,79,0,4.14,53.61,92.87
Eureka,60.69,63,1,14.99,40.8,-124.16
Prachuap Khiri Khan,71.85,96,20,2.35,11.81,99.79
Niamey,82.65,57,0,7.16,13.52,2.11
Byron Bay,59.0,62,88,10.29,-28.65,153.62
Hamilton,80.6,88,90,23.04,32.3,-64.78
Nuuk,37.4,69,75,14.99,64.17,-51.74
Billings,57.92,69,40,11.41,45.79,-108.5
Thinadhoo,78.51,100,92,11.63,0.53,72.93
Eyl,76.62,86,0,22.82,7.98,49.82
Lagoa Formosa,73.92,74,56,5.48,-18.77,-46.41
Anisoc,73.74,96,20,2.35,1.87,10.77
Bangui,76.8,88,12,2.35,4.39,18.55
Erenhot,40.08,45,32,23.82,43.65,111.97
Svetlogorsk,46.4,87,90,8.95,53.14,59.15
Athabasca,40.62,91,88,10.63,54.72,-113.29
Bismil,71.58,64,0,8.05,37.85,40.66
Atar,90.75,30,20,11.07,20.52,-13.05
Grand Gaube,71.6,73,75,8.05,-20.01,57.66
Sarangani,82.65,99,80,14.65,5.4,125.46
Yenagoa,77.07,89,80,6.71,4.92,6.26
Arona,67.57,77,0,2.24,45.76,8.56
Liverpool,59.79,88,75,16.11,53.41,-2.98
Malvern,64.51,93,75,18.34,52.12,-2.33
Curup,70.5,95,92,2.01,-3.47,102.53
Anloga,78.33,85,0,7.49,5.79,0.9
Antofagasta,60.8,67,20,11.41,-23.65,-70.4
Putina,66.2,8,20,3.36,-14.91,-69.87
Doka,78.06,73,12,5.14,13.52,35.76
Nsoko,61.5,75,56,2.91,-27.07,31.93
Mehamn,51.28,87,40,10.29,71.03,27.85
Inirida,87.33,66,24,1.68,3.87,-67.92
Manado,75.2,88,20,1.12,1.49,124.85
Manicore,93.2,52,20,6.93,-5.81,-61.3
Yate,64.44,100,92,26.4,51.54,-2.41
Mason City,79.05,83,40,10.29,43.15,-93.2
Cuitareo,78.8,44,40,2.13,19.62,-100.6
Imeni Babushkina,55.02,91,64,7.38,59.76,43.13
Gazanjyk,57.36,82,0,4.59,39.24,55.52
Washington DC.,81.46,67,75,6.93,38.9,-77.04
Petrove,64.4,48,0,2.68,48.34,33.27
Myskhako,57.2,87,0,2.24,44.66,37.76
Scarborough,52.38,100,92,3.36,54.28,-0.41
Hami,53.49,32,0,10.96,42.84,93.51
Merrill,66.02,30,1,5.82,42.03,-121.6
Araouane,87.51,25,0,3.69,18.9,-3.53
Dunedin,45.12,92,92,8.95,-45.87,170.5
Veraval,66.79,68,0,10.29,49.65,0.71
Bukachacha,45.48,100,92,3.02,52.99,116.91
Ballitoville,59.79,84,0,8.16,-29.54,31.21
Flagstaff,77.36,20,1,4.7,35.2,-111.65
Sikasso,76.53,86,0,4.47,11.32,-5.68
Jiuquan,27.3,71,0,2.35,39.73,98.49
Fairbanks,46.94,96,90,4.7,64.84,-147.72
Necochea,64.65,53,68,14.09,-38.55,-58.74
Camargo,77.79,74,20,4.92,27.69,-105.17
Warrensburg,91.51,38,40,18.34,38.76,-93.74
Petropavlovsk-Kamchatskiy,48.2,100,75,4.03,53.05,158.65
Watsa,65.1,99,64,2.57,3.04,29.53
Westport,48.54,92,56,8.95,53.8,-9.52
Barstow,81.34,55,75,11.41,31.46,-103.39
Taldan,44.67,98,92,9.51,53.69,124.82
Adelaide,55.4,76,75,4.7,-34.93,138.6
Fare,74.64,100,100,17.45,-16.7,-151.02
Meiganga,69.15,79,0,4.03,6.52,14.29
Magadi,69.8,100,75,10.29,12.96,77.22
Takoradi,77.43,99,12,7.72,4.89,-1.75
Mandiana,72.3,94,24,8.5,10.62,-8.7
Bloemfontein,59.0,21,0,5.82,-29.12,26.22
Emba,77.52,88,20,4.7,34.81,32.42
Warrnambool,52.05,100,92,9.95,-38.38,142.48
Leiyang,74.01,97,68,6.15,26.42,112.85
Gaoua,78.24,84,8,2.46,10.33,-3.18
Santa Maria,71.6,68,0,12.75,-29.69,-53.81
Saint-Georges,59.34,70,32,3.13,46.12,-70.67
Novoderevyankovskaya,56.28,77,0,2.57,46.33,38.75
Polyarnyy,51.8,87,0,8.95,69.2,33.45
Road Town,87.91,70,40,10.29,18.42,-64.62
Kenai,53.06,85,90,9.17,60.55,-151.26
Vung Tau,77.0,100,75,3.36,10.35,107.08
Sri Aman,73.4,100,100,2.46,1.24,111.46
Qobustan,64.4,77,20,6.93,40.08,49.41
Swadlincote,62.6,88,75,25.28,52.77,-1.56
Shahrud,47.19,97,48,2.46,36.42,54.97
Matagami,71.4,71,12,5.48,9.67,8.4
Kahului,84.52,61,20,9.17,20.89,-156.47
Rio Grande,68.0,52,0,10.29,-32.03,-52.1
Kapuskasing,59.0,62,90,10.29,49.42,-82.43
Bogo,75.9,83,0,2.68,10.74,14.61
Bratsk,33.8,86,24,4.47,56.15,101.63
Yeppoon,62.6,21,0,6.93,-23.13,150.74
Krasnoshchekovo,59.25,36,32,11.52,51.67,82.73
Turukhansk,44.31,92,76,14.43,65.8,87.96
Mayo,41.0,38,5,2.24,63.59,-135.9
Sawakin,87.8,55,0,10.29,19.1,37.33
Mahabad,47.82,83,0,1.9,36.77,45.72
Usolye-Sibirskoye,38.55,86,0,9.4,52.75,103.66
Keetmanshoop,52.77,30,8,6.38,-26.57,18.15
Phibun Mangsahan,77.0,88,0,2.24,15.24,105.23
Greenfield,68.27,58,90,4.7,42.59,-72.6
Antipino,51.8,93,40,4.47,57.11,65.76
Burgersdorp,34.5,70,64,2.35,-30.99,26.32
Kungurtug,9.84,66,0,1.9,50.6,97.53
Corvallis,66.92,45,1,4.7,44.56,-123.26
Laiyang,55.56,93,0,2.68,36.98,120.7
Guerrero Negro,80.67,54,0,8.95,27.97,-114.04
Sechura,72.66,78,0,13.42,-5.56,-80.82
Kamaishi,58.98,96,92,0.56,39.28,141.86
Kinkala,76.62,86,8,1.12,-4.35,14.75
Lubu,73.2,99,32,2.46,23.17,112.28
Ravar,64.65,44,12,3.47,31.27,56.81
Tipitapa,77.0,83,75,11.41,12.2,-86.1
Cravo Norte,90.57,63,8,7.16,6.3,-70.2
Ha Giang,71.49,99,92,1.34,22.83,104.99
Kutum,80.67,26,76,7.05,14.2,24.66
Atikokan,53.76,89,92,8.95,48.76,-91.62
Morro Bay,86.52,30,1,13.87,35.37,-120.85
Podor,85.8,50,0,7.94,16.65,-14.96
Kulhudhuffushi,80.4,100,44,16.22,6.62,73.07
Bin Qirdan,78.87,69,36,8.95,33.14,11.22
Seminole,78.46,58,90,13.87,32.72,-102.64
Coos Bay,68.0,56,1,13.87,43.37,-124.22
Odienne,76.17,86,20,6.38,9.51,-7.57
Madang,73.92,100,24,2.46,-5.21,145.81
Aasiaat,33.96,100,20,8.05,68.71,-52.87
Vao,62.22,79,8,11.74,59.1,26.19
Havelock,83.01,67,75,9.17,34.88,-76.9
Lyubech,58.89,81,44,2.68,51.7,30.66
Sehithwa,65.91,49,0,4.14,-20.47,22.7
Kozlovo,54.84,91,0,8.05,56.51,36.26
Preobrazheniye,36.84,84,0,1.57,42.9,133.91
Wajima,66.54,100,92,9.95,37.4,136.9
Hovd,52.59,75,0,23.04,63.83,10.7
Redmond,61.43,62,75,5.82,47.67,-122.12
Zhigalovo,34.32,70,0,3.91,54.81,105.15
Deputatskiy,29.55,97,92,2.91,69.3,139.9
Presidencia Roque Saenz Pena,78.42,75,0,7.72,-26.79,-60.44
Monterey,79.47,14,1,3.69,36.6,-121.89
Tancheng,66.0,87,20,4.92,33.44,116.55
Okakarara,65.55,32,48,5.48,-20.59,17.46
Balakovo,60.33,90,68,8.61,52.02,47.82
Zavodouspenskoye,51.8,93,40,4.47,56.86,65.02
Laredo,89.24,63,75,16.11,27.51,-99.51
Humaita,81.64,26,0,13.87,-24.93,-65.37
Sayyan,52.68,25,0,3.69,15.17,44.32
Zhangjiakou,34.5,47,0,5.7,40.77,114.88
San Jeronimo,64.2,26,36,2.91,-13.65,-73.37
Benguela,69.6,100,68,3.91,-12.58,13.4
Quepos,74.32,78,75,5.82,9.43,-84.16
Ambatondrazaka,52.59,95,64,2.57,-17.82,48.43
Ciudad Bolivar,87.6,62,68,15.55,8.12,-63.55
Orlik,4.53,63,0,1.9,52.51,99.83
Oktyabrskoye,46.38,57,32,7.05,56.73,85.44
Beidao,41.34,80,12,2.46,34.57,105.89
Mackenzie,46.4,42,90,8.05,55.34,-123.09
Russell,77.0,47,0,11.41,-33.01,-68.8
Mandera,81.39,43,0,11.74,3.94,41.86
Mezen,51.6,89,92,9.73,65.85,44.24
Traverse City,65.48,87,90,5.82,44.76,-85.62
Bulgan,29.55,62,0,8.61,48.81,103.53
Namwala,71.49,29,0,11.52,-15.75,26.45
Ilheus,75.36,100,48,5.03,-14.79,-39.05
Rundu,70.59,16,0,9.62,-17.91,19.77
Limbang,77.68,94,75,2.24,4.75,115.01
Sangar,35.31,80,0,6.49,63.92,127.47
Akom,75.27,86,12,6.15,6.86,-1.64
Oksfjord,45.86,93,0,9.17,70.24,22.35
Biu,79.32,50,0,6.49,10.61,12.19
Yuzhnouralsk,48.72,87,64,6.6,54.44,61.27
Guano,67.21,45,40,29.97,-1.61,-78.64
Nemuro,60.6,99,0,12.19,43.32,145.57
Vardo,81.1,60,40,9.17,39.62,-77.74
Indiaroba,77.07,69,32,12.08,-11.53,-37.51
La Plata,69.8,35,0,13.87,-34.92,-57.95
Weihe,52.95,89,56,1.68,32.99,105.33
Indianola,71.47,81,90,9.17,40.24,-100.42
Healesville,44.82,87,75,9.17,-37.65,145.52
Ust-Ilimsk,38.1,92,88,2.57,57.96,102.73
Ygatimi,74.82,90,64,2.13,-24.08,-55.5
Balkanabat,52.05,80,0,2.68,39.51,54.36
Orland Park,93.11,49,40,11.41,41.63,-87.85
Myre,53.6,54,0,5.82,62.25,17.37
Pacific Grove,79.45,14,1,3.69,36.62,-121.92
Dotnuva,64.31,72,0,5.82,55.37,23.89
Batagay-Alyta,9.3,58,0,4.36,67.8,130.41
La Ronge,37.4,74,90,11.41,55.1,-105.3
Agua Verde,91.4,59,75,8.05,22.89,-105.97
Kiama,42.8,75,0,9.17,-34.67,150.86
Pandaan,77.0,83,20,5.82,-7.65,112.69
Kenora,54.55,66,90,11.41,49.76,-94.48
Sedalia,91.56,38,40,18.34,38.7,-93.23
Giyon,51.87,93,8,2.57,8.53,37.98
Kuryk,61.77,91,0,7.61,43.18,51.68
Dosso,80.4,74,0,2.91,13.05,3.19
Hortolandia,71.6,73,75,3.36,-22.86,-47.22
Igurubi,72.12,47,56,7.05,-4.0,33.71
Altamira,91.4,55,75,3.36,-3.2,-52.21
Rockland,64.2,77,75,9.17,42.13,-70.92
Farsund,53.49,100,56,6.49,58.09,6.8
Hambantota,75.45,100,92,12.75,6.12,81.12
Lazarev,50.88,92,12,14.43,52.23,141.51
Puro,74.55,98,36,2.35,13.13,123.76
Verkh-Usugli,43.14,97,92,4.36,52.7,115.17
Te Anau,42.51,97,92,3.02,-45.41,167.72
Turayf,78.8,34,0,4.7,31.68,38.65
Belen,78.8,74,40,10.29,36.49,36.19
Kuytun,28.29,86,0,2.35,54.34,101.51
San Jose,71.85,98,48,2.35,15.79,120.99
Bridlington,56.23,82,75,21.92,54.08,-0.19
Zemio,76.08,89,76,4.03,5.02,25.13
Finschhafen,71.4,90,20,1.34,-6.6,147.85
Ariquemes,93.54,47,68,2.35,-9.91,-63.03
Kishi,74.64,84,64,3.13,9.08,3.85
Jaicos,93.45,23,12,11.18,-7.36,-41.14
Savannakhet,72.12,88,0,5.37,16.57,104.76
Bandarbeyla,77.07,97,0,25.84,9.49,50.81
Polunochnoye,48.72,93,68,7.49,60.87,60.43
Christchurch,48.2,93,64,13.87,-43.53,172.64
Brigantine,72.72,70,90,9.17,39.41,-74.36
Ulladulla,42.8,75,0,9.17,-35.36,150.48
Xuddur,76.17,58,0,13.09,4.12,43.89
Tawang,48.45,98,92,0.45,27.59,91.87
Bouza,81.21,51,0,5.03,14.42,6.04
Hingatungan,80.49,100,36,9.73,10.58,125.19
Mezhdurechensk,30.45,83,0,2.13,53.69,88.07
Chalus,68.0,94,90,2.13,36.66,51.42
Atasu,49.26,97,68,17.67,48.68,71.64
Axim,77.97,100,92,11.07,4.87,-2.24
Amga,34.32,81,12,5.14,60.89,131.98
Pemba,75.2,88,20,4.7,-12.97,40.52
Coquimbo,66.2,59,0,11.41,-29.95,-71.34
Agoura Hills,77.45,62,20,6.93,34.14,-118.77
Kurchum,55.2,59,20,9.4,48.57,83.65
Alzamay,32.07,86,0,3.91,55.55,98.67
Ginda,51.69,71,0,2.35,30.69,78.49
Memaliaj,65.1,100,0,2.91,40.35,19.98
Tazovskiy,46.47,82,92,14.54,67.47,78.7
Kisaran,74.82,96,48,2.57,2.98,99.62
San Angelo,84.92,53,75,18.34,31.46,-100.44
Berdigestyakh,34.5,76,0,5.7,62.1,126.7
Ust-Kalmanka,46.47,73,8,3.36,52.12,83.31
Pavilosta,63.54,93,48,4.7,56.89,21.19
Romny,56.55,80,24,2.57,50.74,33.49
Erzin,78.8,74,75,3.36,36.95,36.2
Half Moon Bay,82.4,61,1,5.82,37.46,-122.43
Puerto Baquerizo Moreno,73.4,73,90,12.75,-0.9,-89.6
Kovylkino,56.01,87,0,10.18,54.04,43.91
Margate,51.8,66,75,9.17,-43.03,147.26
City of Passi,73.29,100,80,2.46,11.12,122.65
Kununurra,73.4,83,0,5.82,-15.77,128.74
Champerico,87.8,55,40,2.24,16.38,-93.6
Bhilwara,71.58,69,20,3.47,25.35,74.64
Elesbao Veloso,93.72,22,0,11.97,-6.2,-42.14
Taunggyi,60.69,95,8,2.01,20.78,97.03
Ouallam,83.64,64,0,2.46,14.32,2.08
Cajamarca,68.0,40,75,6.93,-7.16,-78.52
Manta,51.78,81,24,2.46,45.1,24.1
Igrim,44.4,91,36,2.46,63.19,64.42
Rorvik,51.35,66,75,32.21,64.86,11.24
Khatassy,39.2,69,0,6.71,61.91,129.64
Pareora,47.01,90,36,4.03,-44.49,171.21
Lafia,77.61,84,8,4.36,8.5,8.51
Berlevag,49.95,87,40,12.75,70.86,29.09
Satkhira,77.0,94,90,8.05,22.72,89.08
Bonavista,47.91,100,44,17.22,48.65,-53.11
Wukari,79.5,87,44,4.7,7.87,9.78
Arcos,70.23,80,76,3.02,-20.28,-45.54
Tefe,78.8,78,40,16.11,-3.35,-64.71
Juuru,60.8,87,75,13.87,59.06,24.96
Kontagora,76.08,83,12,3.02,10.4,5.47
Melo,63.84,62,20,7.49,-32.37,-54.17
Carutapera,82.29,73,0,14.54,-1.2,-46.02
Broken Hill,40.44,83,0,2.68,-31.97,141.45
Jalalpur Pirwala,74.64,68,0,2.68,29.5,71.22
Dieppe,66.2,68,0,10.29,49.92,1.08
Coffs Harbour,53.6,71,0,10.29,-30.3,153.13
Bol,82.56,58,8,2.01,13.47,14.72
Inta,38.19,89,76,2.35,66.04,60.13
Vama,62.6,55,0,4.7,47.57,25.69
Escanaba,64.04,93,90,8.05,45.75,-87.06
Boguchany,36.57,94,48,2.35,58.38,97.46
Westerland,64.4,82,90,14.99,52.89,4.93
Sampit,71.4,93,44,2.91,-2.54,112.95
Sainte-Marie,61.66,59,75,8.05,46.45,-71.03
Visnes,53.51,66,75,17.22,59.36,5.22
Boyolangu,68.7,89,36,4.14,-8.09,111.9
Vysokopillya,64.4,48,0,4.47,47.49,33.53
Xining,39.9,82,24,2.46,36.62,101.77
Ajnala,78.8,78,0,4.7,31.84,74.76
Lichuan,64.47,99,92,2.35,30.3,108.94
San Carlos,80.4,94,32,3.58,9.66,-68.59
Danville,86.4,61,20,3.36,36.59,-79.4
Dongsheng,67.8,74,64,6.38,29.72,112.52
Tupik,37.92,98,92,9.4,54.43,119.94
Shieli,51.69,64,0,8.5,44.18,66.74
Puerto del Rosario,75.2,83,0,9.17,28.5,-13.86
Youkounkoun,80.58,88,8,2.35,12.53,-13.12
Duncan,91.8,48,40,13.87,34.5,-97.96
Verkhnyaya Maksakovka,32.0,88,0,2.24,61.63,50.97
Pueblo,77.13,32,1,3.36,38.25,-104.61
Williston,41.92,85,90,12.75,48.15,-103.62
Monrovia,77.0,94,75,6.04,6.33,-10.8
Porto Novo,68.0,82,40,4.7,-23.68,-45.44
Treinta y Tres,62.85,69,0,6.38,-33.23,-54.39
Dunmore East,47.82,100,92,18.23,52.15,-6.99
Fernie,46.4,75,90,9.17,49.5,-115.06
Espoo,60.8,87,75,16.11,60.22,24.66
Anadyr,48.2,93,20,4.47,64.73,177.51
Merauke,74.73,93,64,10.07,-8.49,140.4
Tafresh,58.8,55,8,3.13,34.69,50.01
Umm Lajj,82.92,92,64,4.92,25.02,37.27
Hohhot,37.4,69,0,4.47,40.81,111.65
Morris,94.68,42,1,14.99,41.36,-88.42
Fayaoue,71.94,100,92,10.63,-20.65,166.53
Ambovombe,67.62,97,0,6.93,-25.18,46.09
Balabac,81.03,100,48,9.95,7.99,117.06
Camacupa,65.64,47,12,5.59,-12.02,17.48
Oistins,86.0,70,40,20.8,13.07,-59.53
Port Augusta,41.0,93,0,5.82,-32.49,137.76
Vila,69.82,77,0,2.24,45.18,8.4
Behbahan,92.21,18,8,6.93,30.59,50.24
Vertientes,89.6,62,40,17.22,21.26,-78.15
Gazli,56.55,64,0,2.91,40.13,63.45
Nhulunbuy,71.6,94,0,4.7,-12.18,136.78
Ilinskiy,57.22,76,0,2.24,55.62,38.12
Ahuimanu,84.0,85,75,6.93,21.44,-157.84
Nelson,53.6,76,40,2.24,49.49,-117.29
Abu Samrah,71.31,52,0,6.93,35.3,37.18
Pelym,47.64,100,32,4.59,61.01,62.0
Le Moule,86.0,66,75,12.75,16.33,-61.35
Lastoursville,79.14,79,32,3.36,-0.81,12.73
Umtata,46.4,93,20,4.7,-31.59,28.78
Jijiga,58.44,80,0,1.9,9.35,42.8
Tiszalok,64.4,68,0,2.24,48.02,21.38
Aksu,51.8,66,0,2.24,52.04,76.93
Puerto Colombia,87.8,79,75,11.41,10.99,-74.96
Buluang,77.0,94,75,1.12,10.47,123.98
Maniitsoq,35.58,99,0,6.49,65.42,-52.9
De-Kastri,50.16,97,0,14.65,51.48,140.77
General Roca,73.4,25,0,25.28,-39.03,-67.58
Ranong,79.14,100,20,3.47,9.96,98.62
Lhokseumawe,83.28,99,76,7.61,5.18,97.15
Pueblo Bello,93.2,59,40,6.93,8.2,-76.53
Rocha,66.0,49,0,4.47,-34.48,-54.34
Sisimiut,32.43,79,88,2.46,66.94,-53.67
Timbuktu,84.99,55,0,2.01,16.77,-3.01
Yongan,34.77,66,0,3.36,39.7,113.69
Oda,71.04,100,92,10.07,35.19,132.5
Tilichiki,49.17,99,76,4.03,60.47,166.1
Sintra,70.03,77,0,17.22,38.8,-9.39
Dingtao,56.82,89,0,2.68,35.07,115.56
Hope,57.2,82,75,6.93,49.38,-121.43
Mercedes,68.61,49,0,9.4,-33.25,-58.03
Northam,64.4,93,75,26.4,51.04,-4.21
Kramat,77.0,83,20,5.82,-7.04,112.64
Fort Smith,93.87,52,75,9.17,35.39,-94.42
Jacksonville,89.13,66,40,11.41,30.33,-81.66
Plouzane,64.44,93,92,27.51,48.38,-4.62
Olean,72.03,77,75,2.68,42.08,-78.43
Tynda,37.74,64,56,5.14,55.15,124.74
Vysha,57.27,85,0,7.72,53.85,42.38
Molugan,69.6,100,80,1.45,8.54,124.56
Zhanaozen,54.21,82,0,4.92,43.35,52.85
Ewa Beach,83.97,85,75,6.93,21.32,-158.01
Xiaoweizhai,69.24,94,100,3.02,26.23,107.51
Kailua,84.0,85,75,6.93,21.39,-157.74
Portsmouth,64.4,82,75,25.28,50.8,-1.08
Port Antonio,91.4,52,40,25.28,18.18,-76.45
Bojnurd,59.0,47,0,2.24,37.47,57.33
Okato,54.84,100,100,6.71,-39.19,173.88
Dalvik,53.6,93,75,5.82,57.79,14.13
Ziway,53.04,97,92,3.47,7.93,38.72
Agadez,84.09,22,76,1.68,16.97,7.99
Hay River,33.8,55,75,12.75,60.82,-115.79
Yumen,33.42,57,0,5.14,40.29,97.04
Emerald,56.55,28,0,16.11,-23.53,148.16
Quatre Cocos,71.6,73,75,8.05,-20.21,57.76
Krasnoborsk,43.77,95,48,5.48,61.56,45.93
Forbesganj,77.61,89,64,9.51,26.3,87.26
Cabedelo,78.15,91,88,15.1,-6.97,-34.84
North Bend,68.0,56,1,13.87,43.41,-124.22
Balkhash,57.81,100,88,11.18,46.84,74.98
Darnah,76.35,100,0,9.95,32.77,22.64
Morbegno,63.07,87,0,4.7,46.13,9.57
Tautira,80.6,69,20,8.05,-17.73,-149.15
Lencois Paulista,66.2,100,90,16.11,-22.6,-48.8
Southbridge,67.87,77,90,8.05,42.08,-72.03
Son La,68.7,94,68,1.57,21.32,103.9
Corinth,73.4,43,0,3.36,37.94,22.93
Vredendal,39.81,85,8,3.47,-31.68,18.49
Lugovoy,47.91,85,48,4.47,59.72,65.88
Najran,78.8,13,0,3.02,17.54,44.22
Shangqiu,60.24,87,8,4.14,34.42,115.65
Nizhniy Kuranakh,27.39,82,0,2.01,58.84,125.49
Pindiga,76.44,76,0,0.11,9.98,10.93
Valley City,50.0,100,90,17.22,46.92,-98.0
Aqtobe,51.8,66,0,11.18,50.28,57.21
Stepnogorsk,44.85,88,20,3.02,52.35,71.88
Mosetse,87.06,17,88,15.99,-20.64,26.64
Banda Aceh,75.36,98,48,2.35,5.56,95.32
Yerkoy,44.94,80,8,2.46,39.64,34.47
Vesoul,64.4,77,0,5.82,47.62,6.16
Arvin,83.41,8,1,12.75,35.21,-118.83
Shahr-e Babak,68.61,28,64,11.41,30.12,55.12
Marica,83.34,65,20,4.7,-22.92,-42.82
Gilgit,43.14,51,48,0.34,35.92,74.31
Haldibari,73.65,98,92,2.46,26.34,88.78
Ha Tinh,82.56,100,8,3.47,18.33,105.9
Batticaloa,78.6,100,48,7.05,7.71,81.69
Alice Springs,59.0,26,75,5.82,-23.7,133.88
Shanghai,77.0,94,75,8.95,31.23,121.49
Jiexiu,45.12,87,80,3.58,37.02,111.92
Iroquois Falls,62.6,55,90,8.05,48.76,-80.69
Thunder Bay,55.4,82,90,13.87,48.41,-89.26
Shimoda,69.33,100,100,26.06,34.7,138.93
Saint Andrews,47.01,90,36,4.03,-44.53,171.19
Perigueux,67.06,82,0,8.05,45.18,0.72
Karema,66.45,46,0,2.91,-6.82,30.44
Teya,91.4,52,75,6.93,21.05,-89.07
Uvat,51.87,69,80,5.93,59.14,68.9
Ust-Tarka,48.99,65,48,9.17,55.56,75.71
Quchan,41.07,92,68,1.57,37.11,58.51
Gondanglegi,68.7,89,36,4.14,-7.75,112.01
Simao,58.89,94,0,1.45,22.76,100.79
Conceicao do Araguaia,90.3,45,0,4.7,-8.26,-49.26
Kloulklubed,78.8,88,90,9.17,7.04,134.26
Saint Lawrence,77.0,73,20,3.36,36.06,14.2
Selma,83.71,30,1,5.82,36.57,-119.61
Pailitas,90.12,65,0,1.68,8.96,-73.63
Bodden Town,89.6,79,20,13.87,19.28,-81.25
Lashio,68.97,97,80,0.56,22.93,97.75
Na Klang,68.88,92,0,2.68,17.3,102.21
Superior,79.09,46,1,13.87,39.95,-105.17
Hidalgo,92.03,48,40,14.99,26.1,-98.26
Turbat,68.7,93,0,2.13,26.0,63.05
Noumea,62.6,82,90,1.12,-22.28,166.46
Caramay,79.59,100,20,4.36,10.18,119.24
Mussomeli,62.04,100,32,1.9,37.58,13.75
Khandyga,33.69,96,20,2.91,62.65,135.58
Altay,19.47,66,0,2.01,47.83,88.13
Ngunguru,56.19,100,76,5.37,-35.62,174.5
Tezu,66.99,92,80,1.57,27.93,96.16
Dauphin,55.4,50,1,5.82,51.15,-100.04
Houston,85.98,74,1,8.72,29.76,-95.37
Tateyama,55.92,100,92,2.13,36.66,137.31
Lodwar,72.3,59,0,4.47,3.12,35.6
Tall Kayf,78.8,31,0,6.93,37.08,41.07
Pedernales,82.2,73,48,9.51,0.07,-80.05
Garissa,77.07,73,80,15.66,-0.46,39.64
Bayir,66.2,77,0,4.7,37.27,28.22
Chilliwack,58.28,82,90,11.41,49.17,-121.95
Hongjiang,71.04,88,80,2.35,27.21,109.83
Valente,84.72,40,0,13.2,-11.41,-39.46
Hendaye,71.2,83,44,4.7,43.37,-1.77
Goderich,71.76,71,92,12.53,43.74,-81.71
Hirara,83.28,100,80,7.05,24.8,125.28
Novoorsk,50.0,81,75,13.42,51.38,58.98
Qasigiannguit,32.0,99,20,3.36,68.82,-51.19
Barcelona,75.2,83,0,6.93,41.38,2.18
San Pedro de Uraba,93.2,59,40,6.93,8.28,-76.38
Roald,53.71,81,75,41.38,62.58,6.12
Maryville,93.88,41,1,20.8,40.35,-94.87
Dolores,65.19,50,56,9.51,-36.31,-57.68
Lavrentiya,44.94,97,80,8.39,65.58,-170.99
Zambrano,87.06,75,24,9.06,9.74,-74.82
Ukhta,31.26,84,0,2.35,63.56,53.68
Stolin,54.75,80,12,2.35,51.89,26.85
Palmerston,64.4,77,90,11.41,43.83,-80.85
Caraballeda,86.0,66,20,17.11,10.61,-66.85
Raichur,71.94,95,92,9.06,16.2,77.36
Yanam,73.74,99,92,23.71,16.73,82.22
Kurmanayevka,43.77,83,100,3.36,52.51,52.07
Cabadiangan,77.0,94,75,1.12,10.45,123.98
Quelimane,75.18,94,0,10.51,-17.88,36.89
Santa Rosa,73.02,40,56,6.71,-36.62,-64.29
Wasilla,54.63,81,75,3.36,61.58,-149.44
Ayagoz,58.53,46,92,6.93,47.96,80.43
Kurilsk,56.28,91,0,8.16,45.23,147.88
Barabai,71.67,97,20,0.89,-2.59,115.38
Pavelets,53.49,84,0,4.7,53.79,39.25
Baiyin,50.0,81,0,4.47,36.55,104.13
Rivadavia,84.0,23,0,1.68,-31.53,-68.59
Makokou,75.72,90,32,2.46,0.56,12.85
Dubrovytsya,56.19,75,12,3.36,51.57,26.57
Talas,55.4,47,0,1.68,38.69,35.55
Beyneu,55.11,80,32,6.49,45.32,55.19
Amagasaki,68.97,94,75,6.93,34.73,135.41
Rezekne,61.5,85,20,10.18,56.5,27.32
Lamar,68.0,72,90,11.41,38.09,-102.62
Svodna,62.6,88,0,2.24,45.04,16.54
Suleja,76.62,87,0,2.35,9.18,7.18
Northport,96.98,37,1,5.14,33.23,-87.58
Ekhabi,48.9,98,92,16.22,53.51,142.97
Zhaotong,58.53,100,92,2.68,27.34,103.71
Leh,7.32,79,32,2.01,34.16,77.58
Tokmak,56.37,76,0,2.68,47.26,35.7
Bulaevo,53.49,92,92,8.5,54.91,70.44
Lahad Datu,74.19,100,12,2.46,5.02,118.33
Granadilla de Abona,70.88,78,75,12.75,28.12,-16.58
Bagnols-sur-Ceze,69.21,73,0,3.36,44.16,4.62
Nizhneudinsk,30.72,84,0,4.14,54.91,99.03
Sao Felix do Xingu,85.17,64,20,4.47,-6.64,-51.99
Ganzhou,75.81,84,48,2.57,25.86,114.93
Songea,71.67,56,0,5.59,-10.68,35.65
Port Pirie,41.0,93,0,5.82,-33.18,138.01
Miguel Auza,73.74,87,36,3.47,24.29,-103.45
Gaurela,73.65,96,92,13.98,22.75,81.9
Atbasar,50.79,100,92,9.4,51.81,68.36
Nakhon Si Thammarat,80.13,100,44,3.91,8.43,99.96
Razam,72.84,99,92,4.92,18.45,83.66
Marienburg,66.94,52,0,3.36,52.12,9.98
Bara,76.44,76,0,0.11,10.41,10.6
Chopovychi,59.97,79,12,5.7,50.83,28.95
Rangapara,68.16,85,64,0.89,26.82,92.69
Karpathos,73.4,73,0,21.92,35.51,27.21
Beihai,62.6,93,0,2.24,38.95,121.19
Kokoda,61.86,97,32,2.35,-8.88,147.74
Welver,69.15,46,32,5.82,51.62,7.96
Vitim,32.34,84,0,2.46,59.44,112.57
Wesselsbron,66.9,23,92,8.72,-27.85,26.36
Diapaga,84.99,57,12,8.05,12.07,1.79
Oranjestad,87.8,70,40,25.28,12.52,-70.03
Kedrovyy,30.2,100,0,6.93,56.17,91.82
Inuvik,38.17,41,20,9.17,68.36,-133.71
High Level,35.6,43,5,4.7,58.52,-117.13
Balangir,76.89,94,92,21.47,20.7,83.49
Sherlovaya Gora,38.1,55,64,9.95,50.53,116.31
Abu Dhabi,89.6,79,68,6.93,24.47,54.37
Kalawit,74.46,92,68,2.01,7.91,122.53
Tergnier,68.0,64,0,12.75,49.66,3.29
Lubango,65.73,82,24,2.01,-14.92,13.49
Tyukalinsk,52.59,97,92,2.57,55.87,72.2
Danane,73.38,96,80,4.03,7.26,-8.15
Dhemaji,72.57,96,44,2.13,27.48,94.56
Ferrol,64.2,82,20,9.17,43.48,-8.23
Porangatu,83.64,59,8,5.7,-13.44,-49.14
Akureyri,37.4,86,90,14.99,65.68,-18.09
Tarumovka,57.09,85,0,4.14,44.07,46.54
Synya,33.42,87,8,2.46,65.37,58.04
Nagyhegyes,64.4,68,0,2.24,47.54,21.34
Prince George,51.8,50,90,12.75,53.92,-122.75
Alyangula,75.27,100,0,10.07,-13.85,136.42
Horta,75.2,83,0,6.93,41.43,2.16
Mbandaka,78.24,82,8,1.68,0.05,18.26
Atambua,71.94,100,8,7.94,-9.11,124.89
Nanning,75.2,88,0,2.24,22.83,108.3
Maragogi,75.27,95,80,9.17,-9.01,-35.22
Evora,78.8,39,0,11.41,38.57,-7.9
Dharapuram,73.4,83,40,9.17,10.74,77.53
Belyy Yar,33.8,77,0,4.47,53.6,91.39
Birjand,62.6,29,0,2.57,32.86,59.22
Narrabri,42.24,84,0,4.14,-30.33,149.78
Zhicheng,56.91,90,0,3.91,35.04,112.59
Actopan,76.44,48,0,6.15,20.27,-98.94
Nenjiang,53.04,72,68,10.4,49.17,125.23
Kommunar,64.4,77,0,11.18,59.62,30.39
Vega de Alatorre,82.65,80,48,4.47,20.03,-96.65
Rafai,75.09,89,24,3.02,4.95,23.92
Sonoita,81.82,43,20,6.93,31.68,-110.66
Buala,80.31,96,32,3.69,-8.15,159.59
Chepen,73.2,73,8,2.13,-7.22,-79.45
Suileng,52.95,75,36,10.74,47.25,127.08
Payakumbuh,71.13,93,92,1.01,-0.23,100.63
Saqqez,48.27,64,0,1.45,36.24,46.27
Kastamonu,42.42,87,0,2.46,41.38,33.78
Kuching,75.2,94,75,2.24,1.56,110.34
Pasighat,70.14,92,92,1.57,28.06,95.33
Guasdualito,89.6,59,20,4.7,7.24,-70.73
Gravelbourg,43.95,100,92,6.93,49.88,-106.56
Pangkalanbuun,71.4,96,32,1.45,-2.68,111.62
Kysyl-Syr,34.59,100,0,5.93,63.9,122.77
Walvis Bay,55.4,71,32,6.93,-22.95,14.51
Kalaleh,57.09,96,0,3.02,37.38,55.49
Santa Isabel do Rio Negro,84.09,79,8,3.69,-0.41,-65.02
Ortona,69.8,88,0,3.36,42.35,14.4
Ola,44.6,100,75,2.24,59.58,151.3
Ovre Ardal,38.19,87,88,5.93,61.32,7.8
Lang Son,65.82,91,0,1.45,21.83,106.73
Lundazi,69.69,62,0,12.08,-12.29,33.17
Kumluca,51.33,76,0,1.45,36.37,30.29
Fuerte Olimpo,82.11,81,12,9.62,-21.04,-57.87
Ust-Kuyga,28.65,96,76,2.91,70.0,135.55
Belogorsk,51.42,100,0,3.47,45.06,34.59
Cubara,75.9,88,32,1.57,7.0,-72.11
Shalakusha,57.45,94,100,8.39,62.23,40.26
Kingston,62.73,72,90,9.17,44.23,-76.48
Hoshangabad,80.58,67,68,8.61,22.75,77.72
Maine-Soroa,79.86,59,0,2.68,13.21,12.02
Nalut,78.51,38,20,8.95,31.86,10.98
Iskateley,41.07,96,44,9.73,67.68,53.15
Mumbwa,67.44,32,0,9.73,-14.99,27.06
Tevriz,54.39,58,76,6.38,57.51,72.4
Saint-Francois,66.2,68,0,2.68,46.42,3.91
Strelka,37.29,92,0,6.6,58.08,93.03
Santa Barbara,75.67,22,1,4.7,34.42,-119.7
Tual,80.49,98,32,13.98,-5.67,132.75
Tura,73.02,99,80,1.9,25.52,90.21
Fort Saint James,46.56,68,36,5.93,54.43,-124.25
Ugoofaaru,81.84,100,68,18.23,5.67,73.0
La Grande,62.47,39,1,3.36,45.32,-118.09
Pomoryany,56.55,75,32,3.02,49.64,24.93
Segou,79.77,82,8,2.57,12.41,-12.29
Camocim,85.08,55,0,17.78,-2.9,-40.84
Bogorodskoye,45.93,82,0,7.61,52.37,140.44
Anajatuba,87.24,57,48,10.74,-3.26,-44.62
Benghazi,78.33,100,0,9.4,32.12,20.07
Bireun,82.02,100,44,5.59,5.2,96.7
Cabra,76.8,48,0,3.36,37.47,-4.43
