City,Temp (F),Humidity (%),Clouds (Total),Wind Speed (mph),Latitude,Longitude
Lac-Megantic,78.89,61,40,4.7,45.58,-70.88
Pedernales,78.8,85,76,8.1,0.07,-80.05
Ushuaia,35.6,80,75,14.99,-54.81,-68.31
Torbay,59.58,76,75,10.29,47.66,-52.73
Hithadhoo,83.93,100,80,10.11,-0.6,73.08
Tuktoyaktuk,26.6,86,90,8.05,69.44,-133.03
Kapaa,77.56,79,90,14.99,22.08,-159.32
Clyde River,37.4,51,20,11.41,70.47,-68.59
Mataura,31.28,93,0,6.08,-46.19,168.86
Samarai,77.27,100,92,20.51,-10.62,150.67
Dingle,73.67,97,44,4.74,11.0,122.67
Anadyr,42.8,87,75,15.66,64.73,177.51
Atuona,78.71,100,0,14.47,-9.8,-139.03
Punta Arenas,41.0,60,75,4.7,-53.16,-70.91
Hobart,53.6,58,20,12.75,-42.88,147.33
Ahipara,57.38,99,92,7.31,-35.17,173.16
Narsaq,39.2,80,75,5.82,60.91,-46.05
Letlhakane,71.87,59,0,2.95,-21.42,25.59
Nioro,88.16,83,8,3.51,13.79,-15.05
New Norfolk,53.6,58,20,12.75,-42.78,147.06
Upernavik,33.89,100,80,13.35,72.79,-56.15
Cape Town,59.0,82,75,26.4,-33.93,18.42
Cap Malheureux,73.4,78,40,6.93,-19.98,57.61
Rikitea,74.84,96,20,10.33,-23.12,-134.97
Sao Jose da Coroa Grande,81.05,80,0,12.57,-8.9,-35.15
Pisco,71.6,30,0,11.41,-13.71,-76.2
Labuhan,71.42,96,76,1.61,-2.54,115.51
Busselton,54.68,100,68,11.9,-33.64,115.35
Luwuk,78.08,92,80,4.29,-0.95,122.79
Muros,68.0,64,20,5.82,42.77,-9.06
Saint-Philippe,83.59,58,1,14.99,45.36,-73.48
Tirumullaivasal,82.94,80,100,11.68,11.24,79.84
Bluff,61.79,84,0,11.23,-23.58,149.07
San Jose,70.25,95,20,1.39,15.79,120.99
Bambous Virieux,73.4,78,40,6.93,-20.34,57.76
Port Augusta,55.4,20,0,9.17,-32.49,137.76
Tasiilaq,42.8,70,75,19.46,65.61,-37.64
Carnarvon,51.71,31,20,11.23,-30.97,22.13
Buturlinovka,51.71,76,0,14.7,50.83,40.59
San Cristobal,66.2,52,75,9.17,-0.39,-78.55
Garowe,87.35,38,20,12.8,8.41,48.48
Esperance,87.8,66,40,4.29,10.24,-61.45
Port Blair,81.05,100,76,30.47,11.67,92.75
Bonthe,78.98,89,32,3.29,7.53,-12.5
Saldanha,78.35,43,64,5.75,41.42,-6.55
Lebu,49.1,88,8,2.73,8.96,38.73
Severo-Kurilsk,53.6,95,92,13.47,50.68,156.12
Hauge,57.2,76,0,8.05,59.25,10.99
Norman Wells,42.8,56,40,11.41,65.28,-126.83
Grand Baie,73.4,78,40,6.93,-20.02,57.58
Moerai,70.52,100,8,26.89,-22.43,-151.33
Puerto Ayora,78.8,61,40,21.92,-0.74,-90.35
Ribeira Grande,75.2,64,20,18.34,38.52,-28.7
East London,60.8,77,20,5.82,-33.02,27.91
Puerto Escondido,89.6,59,40,6.93,15.86,-97.07
Iqaluit,35.6,74,75,14.99,63.75,-68.52
Barrow,72.86,74,0,6.53,-38.31,-60.23
Leningradskiy,40.91,100,92,13.02,69.38,178.42
Camacha,73.4,69,40,9.17,33.08,-16.33
Conde,82.4,74,20,12.01,-11.81,-37.61
Kiunga,71.69,99,92,2.39,-6.12,141.3
Albany,79.74,47,75,9.17,42.65,-73.75
Cidreira,63.32,100,92,8.21,-30.17,-50.22
Meulaboh,74.21,100,76,7.65,4.14,96.13
Rapid City,67.42,69,75,5.97,44.08,-103.23
Yulara,51.8,27,76,4.7,-25.24,130.99
Yellowknife,48.2,39,75,13.87,62.45,-114.38
Katsuura,71.96,100,76,4.29,33.93,134.5
Ustye,59.18,99,56,24.09,58.76,27.79
Pevek,39.56,100,88,13.02,69.7,170.27
Khatanga,30.38,89,36,6.98,71.98,102.47
Taoudenni,93.65,34,92,7.65,22.68,-3.98
Ponta do Sol,69.08,100,92,7.76,-20.63,-46.0
Jamestown,51.71,38,0,15.26,-33.21,138.6
Georgetown,84.2,83,75,11.41,6.8,-58.16
Hilo,73.94,84,90,10.29,19.71,-155.08
Solnechnyy,42.98,91,48,2.39,50.72,136.64
Sisimiut,37.58,76,0,2.62,66.94,-53.67
Mogadishu,77.9,100,92,16.04,2.04,45.34
Sanchursk,45.86,88,0,5.64,56.94,47.25
Freeport,89.6,59,40,8.05,26.54,-78.7
Grindavik,54.05,71,75,9.17,63.84,-22.43
Campbell River,55.4,71,75,4.7,50.02,-125.24
Hermanus,54.32,89,88,10.89,-34.42,19.24
Yala,73.76,96,92,3.18,6.54,101.28
Rio Gallegos,39.2,86,75,13.87,-51.62,-69.22
Arlit,90.68,14,0,4.63,18.74,7.39
Sitka,89.24,56,0,12.01,37.17,-99.65
Touros,82.58,71,0,18.28,-5.2,-35.46
Ngaoundere,66.2,93,20,3.85,7.32,13.58
Port Alfred,65.21,87,56,12.46,-33.59,26.89
Fortuna,78.22,78,20,10.29,38.18,-1.13
Chake Chake,77.63,99,0,12.57,-5.25,39.77
Saskylakh,33.17,89,80,3.06,71.97,114.09
Wawa,82.76,81,0,4.97,9.9,4.41
Bredasdorp,60.8,59,76,9.17,-34.53,20.04
Souillac,84.2,45,0,3.36,45.6,-0.6
Astaneh-ye Ashrafiyeh,75.2,78,75,6.93,37.26,49.94
Komsomolskiy,46.49,93,92,22.86,67.55,63.78
Victoria,79.81,88,75,3.36,5.28,115.24
Qaanaaq,24.53,100,0,5.41,77.48,-69.36
Venice,91.17,66,20,9.17,27.1,-82.45
Homer,51.55,100,90,4.7,59.64,-151.54
Castro,48.11,99,92,10.67,-42.48,-73.76
Dikson,38.21,100,88,10.67,73.51,80.55
Hervey Bay,67.01,96,0,11.68,-25.3,152.85
Rome,75.22,57,40,3.36,41.89,12.48
Kenai,52.05,96,90,3.36,60.55,-151.26
Mahanoro,63.77,96,0,3.62,-19.9,48.8
Rio de Janeiro,70.95,83,90,4.7,-22.91,-43.21
Cadiz,69.66,93,90,11.41,40.27,-81.0
Harper,82.13,62,90,6.93,30.3,-99.24
Belle Fourche,65.68,77,40,5.82,44.67,-103.85
Bilma,91.04,16,76,2.73,18.69,12.92
Nizhniy Tsasuchey,41.18,79,0,5.08,50.52,115.13
Guerrero Negro,80.42,67,0,6.64,27.97,-114.04
Vila Velha,87.8,55,0,21.92,-3.71,-38.6
Longyearbyen,33.8,74,40,21.92,78.22,15.63
Teguise,77.0,65,20,13.87,29.06,-13.56
Daru,75.65,91,88,6.08,7.99,-10.85
Tual,80.6,98,64,12.35,-5.67,132.75
Chuy,66.56,94,92,10.45,-33.69,-53.46
Vostok,50.63,60,88,4.41,46.45,135.83
Ikungi,68.72,53,0,6.76,-5.13,34.77
San Patricio,71.06,81,12,3.96,-26.98,-56.83
Bongandanga,78.71,80,24,3.51,1.51,21.07
Tiksi,34.43,100,88,9.44,71.64,128.87
Ahvaz,104.0,12,0,9.17,31.32,48.68
Bowen,68.0,94,40,6.93,-20.01,148.25
Karratha,71.96,27,0,10.45,-20.74,116.85
Ostersund,48.2,76,0,3.36,63.18,14.64
Yar-Sale,46.31,99,64,18.61,66.83,70.83
Schmallenberg,70.3,42,0,4.7,51.15,8.28
Gladstone,61.7,96,0,9.44,-23.84,151.26
Sikonge,80.6,34,0,9.17,-5.63,32.75
Varhaug,57.2,82,75,12.75,58.61,5.65
Faanui,79.7,100,68,16.82,-16.48,-151.75
Kavaratti,83.3,100,88,7.2,10.57,72.64
Port Elizabeth,79.41,74,90,9.17,39.31,-74.98
Nikolskoye,55.4,93,75,15.66,59.7,30.79
Puerto Santander,84.2,54,75,19.46,8.35,-72.41
Sao Joao da Barra,73.4,78,75,9.17,-21.64,-41.05
Bitung,77.0,83,20,3.36,1.44,125.19
Westport,60.8,100,90,18.34,53.8,-9.52
Quang Ngai,71.15,96,92,2.17,15.12,108.8
Chandia,72.86,85,12,4.74,23.65,80.7
Poronaysk,44.06,94,24,5.41,49.22,143.1
Sompeta,75.02,95,32,2.95,18.93,84.6
Andros Town,87.8,62,75,12.75,24.73,-77.79
Mareeba,71.6,78,20,8.05,-16.99,145.42
Faya,72.54,73,20,5.82,18.39,42.45
Dayong,81.23,100,32,12.8,11.74,122.04
Mahebourg,73.4,78,40,6.93,-20.41,57.7
Gazipur,84.2,79,20,3.36,24.0,90.42
Dunedin,32.63,86,0,5.97,-45.87,170.5
Iranshahr,93.2,23,0,11.41,27.21,60.69
Wanning,71.6,56,0,5.82,48.64,13.53
Butaritari,82.85,100,36,9.22,3.07,172.79
Codrington,45.14,90,0,3.62,-28.95,153.24
Haimen,76.01,100,36,9.22,31.87,121.18
Maceio,82.4,65,40,13.87,-9.67,-35.74
Maryborough,57.47,77,0,3.29,-25.54,152.7
Chokurdakh,37.58,96,92,4.63,70.62,147.9
Porto Novo,60.8,93,90,10.29,-23.68,-45.44
Nagapattinam,82.22,77,92,8.99,10.76,79.84
Fuxin,52.61,85,64,3.85,42.02,121.65
Cairns,71.6,78,20,8.05,-16.92,145.77
Bethel,48.92,100,90,5.82,60.79,-161.76
Yuzhnyy,48.56,79,0,7.76,53.54,39.45
Matagami,70.52,95,0,2.73,9.67,8.4
Aksehir,62.33,62,48,5.19,38.36,31.42
Namibe,65.57,100,88,3.18,-15.19,12.15
Parana,93.2,46,40,8.05,-7.52,-72.89
Koraput,66.11,97,92,2.17,18.81,82.72
Neuquen,61.25,44,76,10.22,-38.95,-68.06
Ilo,65.93,81,8,3.96,-17.65,-71.34
Yerofey Pavlovich,35.51,90,0,1.83,53.97,121.97
Esna,64.22,59,0,7.43,45.2,27.57
Strezhevoy,35.6,93,0,2.84,60.73,77.6
Wuwei,38.03,86,0,2.06,37.93,102.64
Lompoc,64.98,77,20,9.17,34.64,-120.46
Tura,76.1,90,20,1.5,25.52,90.21
Arona,73.36,57,0,4.7,45.76,8.56
Vaini,70.34,95,56,4.07,15.34,74.49
Skjervoy,41.0,93,20,2.24,70.03,20.97
Tsabong,72.86,11,0,9.1,-26.02,22.4
Constitucion,69.8,64,75,4.41,23.99,-104.67
Lezajsk,62.6,82,0,1.12,50.26,22.42
Gagra,64.4,93,0,4.47,43.29,40.27
Nanortalik,38.21,100,76,17.05,60.14,-45.24
Riverton,72.79,4,1,6.93,43.02,-108.38
El Tigre,81.5,83,80,11.23,8.89,-64.25
Wanaka,31.01,100,76,2.17,-44.7,169.14
Mayo,33.8,64,5,2.24,63.59,-135.9
Bontang,80.51,100,12,5.97,0.12,117.47
Mandalgovi,41.09,35,12,7.65,45.76,106.27
Klaksvik,48.2,93,80,9.17,62.23,-6.59
Honggang,75.38,97,92,2.39,29.51,114.87
Udachnyy,29.48,82,32,2.17,66.42,112.4
Abu Samrah,77.45,33,0,6.98,35.3,37.18
Ponta Delgada,71.6,88,75,6.93,37.73,-25.67
Margate,53.6,58,20,12.75,-43.03,147.26
Pokrovsk,54.05,64,0,7.2,48.28,37.18
Mayumba,74.39,98,92,9.1,-3.44,10.65
Bathsheba,86.0,70,40,19.46,13.22,-59.52
Kodiak,89.06,53,1,8.05,39.95,-94.76
Deputatskiy,32.63,95,92,3.74,69.3,139.9
Ngunguru,60.71,98,92,11.68,-35.62,174.5
Pandan,81.23,100,32,12.8,11.72,122.09
Saint-Joseph,74.57,73,0,3.36,43.56,6.97
Sao Felix do Xingu,90.77,52,12,2.73,-6.64,-51.99
Auki,77.18,83,24,3.4,12.18,6.51
Netivot,73.94,77,0,8.99,31.42,34.59
Ballina,60.8,100,90,18.34,54.11,-9.15
Ponnani,78.8,83,40,4.7,10.77,75.93
Pacific Grove,63.82,72,20,6.93,36.62,-121.92
Ladybrand,61.88,15,0,6.76,-29.19,27.46
Lagoa,77.0,83,20,9.17,37.14,-8.45
Mount Isa,42.8,28,0,6.98,-20.73,139.49
Matara,37.4,328,40,6.93,-13.74,-72.9
Mar del Plata,61.88,38,0,23.76,-46.43,-67.52
Lavrentiya,48.02,94,8,15.37,65.58,-170.99
Kahului,75.76,69,20,10.29,20.89,-156.47
Aranos,77.72,9,0,10.45,-24.14,19.11
Ngorongoro,58.1,66,0,3.4,-3.24,35.49
Nizhneudinsk,44.33,97,32,4.74,54.91,99.03
Oeiras,101.75,22,0,10.78,-7.01,-42.13
Saint George,71.6,68,0,4.7,39.45,22.34
Ust-Nera,16.79,98,12,2.95,64.57,143.24
Banda Aceh,77.54,86,92,6.2,5.56,95.32
Provideniya,47.48,96,88,14.92,64.42,-173.23
Badarwas,74.66,69,0,5.97,24.97,77.57
Beringovskiy,41.0,100,0,10.22,63.05,179.32
Tomatlan,86.99,65,0,1.95,19.93,-105.25
San Francisco,63.86,64,20,12.75,37.78,-122.42
Namatanai,77.63,100,80,2.95,-3.66,152.44
Baykit,34.7,100,92,3.62,61.68,96.39
Darnah,80.24,96,0,19.73,32.77,22.64
Lucea,87.8,58,75,5.82,18.44,-78.17
Nyaunglebin,76.73,97,80,4.97,17.95,96.73
Pierre,64.04,67,90,8.05,44.37,-100.35
Egvekinot,39.38,98,92,2.95,66.32,-179.17
Avarua,71.6,60,75,14.99,-21.21,-159.78
Pangoa,76.82,83,56,1.95,-12.12,-73.0
Paita,62.6,290,0,19.46,-5.09,-81.11
Meadow Lake,37.4,93,90,2.24,54.13,-108.44
Los Alamos,79.81,22,1,10.29,35.88,-106.3
Bambanglipuro,68.36,96,20,2.39,-7.95,110.28
Airai,66.2,86,56,1.72,-8.93,125.41
Cascais,79.72,34,0,12.75,38.7,-9.42
Davidson,84.29,62,40,13.87,35.5,-80.85
Sandwick,63.41,82,75,13.87,54.57,-2.89
Kruisfontein,59.9,91,56,7.2,-34.0,24.73
Gat,90.5,59,0,7.99,14.69,-16.54
Adrar,91.4,29,75,13.87,27.87,-0.29
Vao,55.49,88,92,15.26,59.1,26.19
Bintulu,77.0,94,75,2.24,3.17,113.03
Whitehorse,33.8,59,5,3.36,60.72,-135.06
Lufilufi,71.6,94,20,3.36,-13.87,-171.6
Cabo San Lucas,80.53,74,75,9.17,22.89,-109.91
Broome,69.82,52,0,14.99,52.47,1.45
Port Lincoln,53.87,96,0,17.49,-34.72,135.86
Rawson,69.71,28,0,13.24,-43.3,-65.11
Nevelsk,42.8,93,92,4.47,46.67,141.86
Severo-Yeniseyskiy,37.31,96,92,3.62,60.37,93.04
Paamiut,40.73,96,56,7.09,61.99,-49.67
Greencastle,86.02,51,40,8.05,39.64,-86.86
Sorsk,38.57,100,92,3.96,54.0,90.25
Zwedru,77.18,86,88,8.21,6.07,-8.13
Celestun,84.11,97,0,9.78,20.87,-90.4
Sao Filipe,79.88,91,0,14.81,14.9,-24.5
Kieta,76.1,100,68,2.73,-6.22,155.63
Geraldton,46.4,75,90,12.75,49.72,-86.95
Shingu,77.0,99,12,6.31,33.72,135.99
Mali,57.65,75,76,1.72,27.53,102.2
Soto la Marina,89.06,71,12,8.1,23.77,-98.21
Bereda,73.4,69,75,4.7,43.27,-7.54
Mitsamiouli,73.4,83,20,3.36,-11.38,43.28
Moose Factory,46.4,93,90,14.99,51.26,-80.61
Quatre Cocos,73.4,78,40,6.93,-20.21,57.76
Marzuq,69.53,43,0,3.62,14.4,46.47
Viedma,65.21,53,0,10.22,-40.81,-62.99
Calmar,37.4,74,90,2.24,53.27,-113.81
Donskoye,57.2,54,0,11.18,45.45,41.98
Viransehir,71.24,30,0,7.99,37.24,39.76
Cherskiy,31.1,94,0,3.62,68.75,161.3
Lorengau,81.5,100,80,8.77,-2.02,147.27
Kamenka,51.08,68,0,14.14,53.19,44.05
Linkou,46.49,73,0,4.18,45.29,130.27
Marawi,67.91,96,68,1.61,8.0,124.29
Maralal,60.08,100,8,3.18,1.1,36.7
Campina Verde,73.49,90,80,6.76,-19.54,-49.49
Te Anau,31.64,97,56,2.95,-45.41,167.72
Acapulco,89.6,62,40,6.93,16.86,-99.88
Lagunas,79.88,89,56,3.06,-5.23,-75.68
Recodo,72.95,100,64,1.72,13.03,121.49
Videira,65.03,77,20,10.67,-27.01,-51.15
Haines Junction,34.97,69,0,0.72,60.75,-137.51
Pilot Butte,53.6,81,75,6.93,50.48,-104.42
San Quintin,78.8,94,20,4.7,17.54,120.52
Honiara,75.2,94,20,2.06,-9.43,159.96
Nome,91.67,57,40,3.36,30.04,-94.42
Teya,93.2,56,75,10.29,21.05,-89.07
Tumaco,76.82,100,92,5.86,1.8,-78.82
Englehart,82.4,51,40,21.92,47.82,-79.87
Zhangye,39.38,80,8,2.95,38.94,100.46
Kavieng,78.8,100,92,3.62,-2.57,150.8
Mapiripan,92.48,50,44,9.22,2.89,-72.13
Sfantu Gheorghe,67.1,56,0,4.7,44.65,26.83
Arandis,62.33,79,8,4.41,-22.42,14.98
Yeppoon,64.4,88,75,8.05,-23.13,150.74
Fairbanks,48.02,92,75,3.36,64.84,-147.72
Agirish,56.21,59,80,10.89,61.92,63.02
Salta,78.08,31,20,6.93,-24.79,-65.41
Neath,64.4,77,0,8.05,51.66,-3.8
Cockburn Town,84.2,96,20,14.92,21.46,-71.14
Lasa,77.22,78,20,4.7,34.92,32.53
Huarmey,77.36,47,12,4.97,-10.07,-78.15
La Ronge,37.4,93,90,11.41,55.1,-105.3
Ahuimanu,76.96,79,90,11.41,21.44,-157.84
Coahuayana,75.74,82,56,3.06,18.62,-100.35
Bensonville,77.0,94,75,4.7,6.45,-10.61
Honningsvag,47.41,93,75,5.82,70.98,25.97
Belaya Gora,35.15,98,92,2.73,68.54,146.19
Hasaki,68.0,100,75,3.36,35.73,140.83
Rolla,84.92,61,75,5.82,37.95,-91.77
Beloha,72.14,57,0,9.78,-25.17,45.06
Maunabo,88.65,79,1,11.41,18.01,-65.9
Gigmoto,81.32,100,88,14.36,13.78,124.39
Port Macquarie,42.8,93,0,3.36,-31.43,152.91
Upington,66.2,16,0,4.7,-28.46,21.24
Naze,86.0,74,75,12.75,5.43,7.07
Bonavista,58.01,87,92,17.05,48.65,-53.11
Muisne,77.63,82,92,7.76,0.61,-80.02
Niigata,61.43,93,0,0.38,37.91,139.04
Nador,78.8,83,20,1.12,35.17,-2.93
Waipawa,52.97,95,92,6.42,-39.94,176.59
Port Moresby,73.4,94,75,9.17,-9.47,147.16
Luderitz,56.03,87,0,9.1,-26.65,15.16
Benghazi,82.04,93,0,15.14,32.12,20.07
Killybegs,61.25,93,92,21.18,54.63,-8.45
Aksarka,47.66,78,88,19.06,66.56,67.8
Nadym,40.91,91,64,11.23,65.53,72.51
Hualmay,72.59,63,24,7.43,-11.1,-77.61
Longview,90.82,50,20,4.07,32.5,-94.74
Nacogdoches,90.48,55,24,3.62,31.6,-94.66
Uni,49.46,96,64,8.43,57.75,51.49
Pundaguitan,76.73,100,48,5.97,6.37,126.17
Kitaibaraki,74.3,99,12,9.44,36.84,140.74
Coihaique,52.83,53,20,32.21,-45.58,-72.07
Sept-Iles,44.6,93,90,10.29,50.2,-66.38
Manati,69.8,73,0,2.24,41.76,19.67
Makat,67.01,49,48,9.22,47.65,53.35
Finschhafen,71.69,93,64,3.18,-6.6,147.85
Lyuban,56.93,67,0,8.43,52.8,28.0
Simdega,72.86,91,68,3.18,22.61,84.51
Erenhot,43.25,71,0,6.53,43.65,111.97
Tautira,75.2,78,75,10.29,-17.73,-149.15
Gaomi,66.2,77,0,2.24,36.37,119.8
Chifeng,43.16,79,68,2.62,42.27,118.96
Nouadhibou,75.2,69,0,24.16,20.93,-17.03
Kentau,51.44,60,12,4.74,43.52,68.5
Vila Franca do Campo,71.6,88,75,6.93,37.72,-25.43
Centralia,89.11,37,1,4.7,39.21,-92.14
Santa Cruz,64.38,72,1,2.95,36.97,-122.03
Deoria,80.06,70,0,8.99,26.5,83.79
Hopelchen,89.6,62,40,11.41,19.77,-89.85
Hampton,51.8,81,0,11.41,-27.36,152.07
Ancud,49.55,95,92,10.89,-41.87,-73.83
Gravdal,56.26,87,75,9.17,59.79,5.78
San Policarpo,77.36,100,80,8.77,12.18,125.51
Inhambane,75.2,88,0,18.34,-23.87,35.38
Semey,45.14,80,0,5.75,50.41,80.25
Tagusao,78.53,98,36,3.85,9.19,117.81
Thunder Bay,62.6,63,75,12.75,48.41,-89.26
Xai-Xai,81.23,65,0,15.93,-25.04,33.64
Ginir,68.0,60,56,4.97,7.14,40.71
Guipavas,66.56,82,90,17.22,48.43,-4.4
Panzhihua,63.41,70,76,2.17,26.59,101.72
Arraial do Cabo,70.68,94,75,14.7,-22.97,-42.02
Shimoda,72.05,100,88,15.37,34.7,138.93
Manggar,76.19,95,12,6.98,-2.88,108.27
Otukpo,81.86,81,44,3.96,7.19,8.13
Ambovombe,69.98,95,0,8.77,-25.18,46.09
Ilulissat,32.0,97,20,4.7,69.22,-51.1
Batagay-Alyta,21.11,85,76,3.29,67.8,130.41
Dunkwa,82.58,73,88,6.42,5.97,-1.78
Springfield,87.08,46,1,4.41,37.22,-93.29
Irbeyskoye,34.79,93,0,2.95,55.64,95.45
Shenzhen,80.6,88,75,6.71,22.54,114.05
Hofn,46.4,75,75,16.11,64.25,-15.21
Weligama,80.6,88,68,11.68,5.97,80.42
Ko Samui,83.93,99,92,19.51,9.54,99.94
Samarkand,69.8,37,0,4.7,39.65,66.98
Lethem,94.55,60,0,7.87,3.38,-59.8
Asosa,64.22,90,12,2.62,10.07,34.53
Biskamzha,38.66,97,88,2.39,53.45,89.53
Kropotkin,56.3,69,0,7.99,45.43,40.58
Qaqortoq,39.2,80,75,5.82,60.72,-46.03
Payakumbuh,73.13,81,64,2.06,-0.23,100.63
Clemson,82.98,67,75,10.29,34.69,-82.84
Ishigaki,84.11,98,24,9.22,24.34,124.16
Padang,79.43,100,76,6.2,-0.92,100.36
Houma,61.34,100,92,3.4,35.63,111.36
Aripuana,93.83,48,0,2.62,-9.17,-60.63
Vardo,73.58,84,90,11.41,39.62,-77.74
Sayat,69.8,28,0,2.24,38.78,63.88
Zhanaozen,77.36,30,100,15.7,43.35,52.85
Rafai,77.54,83,24,3.4,4.95,23.92
Mao,84.25,83,75,5.82,19.55,-71.08
Caceres,80.24,72,20,2.84,5.53,-74.53
Ugoofaaru,84.92,97,92,11.23,5.67,73.0
Buraydah,96.8,18,0,3.36,26.33,43.97
Xunchang,63.77,97,92,2.39,28.45,104.71
Obo,75.29,90,0,3.29,5.39,26.49
Ostrovnoy,41.63,88,0,12.91,68.05,39.51
Gualaquiza,69.71,98,36,2.39,-3.4,-78.58
Lesnoye,53.33,73,44,17.16,51.57,42.77
Zhengjiatun,55.13,73,88,9.44,43.51,123.51
Santa Elena,73.4,78,75,11.41,-2.23,-80.86
Suluq,78.98,37,0,13.8,31.67,20.25
Hami,54.05,39,36,6.42,42.84,93.51
Tezu,70.25,94,20,1.61,27.93,96.16
Faratsiho,57.74,36,0,5.86,-19.41,46.95
Pundri,75.65,74,0,7.43,29.76,76.56
Novo Aripuana,95.72,43,0,3.4,-5.12,-60.38
Misratah,79.16,85,0,9.55,32.38,15.09
Rocha,68.0,91,92,4.41,-34.48,-54.34
Yueyang,76.1,96,80,1.72,29.36,113.12
Nelson Bay,46.4,93,0,4.7,-32.72,152.14
Moreira Sales,70.25,99,80,8.99,-24.05,-53.01
Pouembout,63.05,84,100,5.75,-21.12,164.9
Noumea,59.0,100,75,1.12,-22.28,166.46
Thompson,37.4,64,90,6.93,55.74,-97.86
Saint-Pierre,75.2,36,0,5.82,48.95,4.24
Alice Springs,68.0,10,76,10.22,-23.7,133.88
Taozhuang,57.2,93,0,2.24,39.86,116.51
Hamilton,84.2,70,40,11.41,32.3,-64.78
Katsina,84.47,54,24,6.2,12.99,7.6
Champerico,86.0,58,40,2.84,16.38,-93.6
Qiongshan,77.9,99,56,8.99,20.01,110.35
Anlu,74.75,90,92,5.19,31.26,113.68
Orlik,30.38,100,56,1.95,52.51,99.83
Monte Aprazivel,69.8,83,90,8.05,-20.77,-49.71
Oron,76.82,98,92,6.31,4.81,8.23
Calabozo,89.78,72,36,8.55,8.92,-67.43
Bin Qirdan,83.03,53,12,11.45,33.14,11.22
Atambua,75.65,100,68,7.65,-9.11,124.89
Denia,77.18,98,12,5.97,38.84,0.11
Axim,78.26,98,80,8.88,4.87,-2.24
Surab,51.26,36,0,1.83,28.49,66.26
Mehamn,47.8,93,75,5.82,71.03,27.85
Nezhinka,69.8,21,40,6.71,51.77,55.37
Hovd,50.86,81,75,3.36,63.83,10.7
Aksu,41.0,93,0,4.47,52.04,76.93
Los Llanos de Aridane,73.4,69,75,5.82,28.66,-17.92
Kouango,78.35,83,0,5.75,4.99,19.98
Ocos,87.85,70,40,6.93,14.51,-92.19
Resistencia,76.15,64,75,5.82,-27.45,-58.99
Tambacounda,89.6,59,0,4.7,13.77,-13.67
La Paz,87.8,48,40,6.93,24.15,-110.32
Belmonte,79.61,41,32,3.51,40.36,-7.35
Khandyga,32.81,96,0,2.62,62.65,135.58
Richards Bay,72.32,78,0,11.9,-28.77,32.06
Yumen,44.96,66,76,5.97,40.29,97.04
Alta Floresta,93.2,46,40,5.82,-9.87,-56.08
Damghan,66.02,65,0,3.51,36.17,54.34
Shu,63.14,36,0,13.58,43.6,73.76
Mount Gambier,56.3,45,24,11.9,-37.83,140.78
Constantine,78.8,47,75,5.82,36.36,6.61
Nevel,59.99,66,36,17.16,56.02,29.92
Morant Bay,82.4,78,40,19.46,17.88,-76.41
Havelock,83.5,79,75,14.99,34.88,-76.9
Mozarlandia,92.75,45,0,6.64,-14.74,-50.57
Havoysund,47.05,93,75,11.41,71.0,24.66
Sorso,77.0,78,0,2.24,40.8,8.58
Ust-Maya,39.65,76,48,5.41,60.42,134.54
Kaitangata,35.15,86,0,8.88,-46.28,169.85
Penzance,62.04,93,75,16.11,50.12,-5.53
Chernyshevsk,43.34,78,88,2.39,52.51,117.01
Nizhneangarsk,38.93,100,24,4.18,55.78,109.57
Olinda,84.2,58,75,4.7,-2.03,-79.75
Felipe Carrillo Puerto,90.5,67,0,3.62,19.58,-88.05
Monrovia,77.0,94,75,4.7,6.33,-10.8
Atar,101.21,19,0,7.43,20.52,-13.05
Birao,73.4,95,64,2.62,10.3,22.78
Nokaneng,76.28,45,0,3.51,-19.66,22.19
Bastrop,93.79,43,40,3.36,32.78,-91.91
Sonoita,91.85,29,1,11.41,31.68,-110.66
Sobolevo,56.66,70,44,12.91,54.43,31.9
Maragogi,81.05,80,0,12.57,-9.01,-35.22
Krasnokamensk,36.05,78,0,2.73,50.1,118.04
Sioux Lookout,46.13,66,75,3.36,50.1,-91.92
Yakeshi,34.97,74,0,2.17,49.28,120.73
Noshiro,69.35,98,0,13.8,40.21,140.05
Sao Sebastiao,95.36,43,0,5.3,-3.15,-58.36
Khorixas,73.85,45,0,6.2,-20.37,14.96
Opuwo,70.25,35,0,1.16,-18.06,13.84
Nyurba,38.03,70,8,4.97,63.29,118.35
Novopokrovka,47.75,62,0,4.63,45.85,134.51
Arkhipo-Osipovka,62.06,76,0,9.78,44.37,38.53
Port Hedland,68.0,88,0,6.93,-20.31,118.58
Flinders,44.6,87,36,6.93,-34.58,150.85
Ikalamavony,53.6,78,0,2.51,-21.17,46.6
Vallenar,68.09,60,0,2.95,-28.58,-70.76
Kibakwe,71.51,48,0,7.76,-6.71,36.37
Hambantota,80.96,95,44,15.37,6.12,81.12
Bandarbeyla,76.82,90,20,27.78,9.49,50.81
Limaong,75.2,94,90,6.98,7.36,122.37
Kurkino,47.57,82,0,5.3,53.42,38.66
Milagres,96.8,23,20,2.24,-7.31,-38.94
La Libertad,71.6,13,0,10.29,-16.38,-71.56
Alekseyevka,57.2,87,40,11.18,53.25,50.49
Manado,77.0,83,20,3.36,1.49,124.85
Ust-Kuyga,36.41,98,92,10.45,70.0,135.55
Adilcevaz,57.2,54,0,4.7,38.8,42.73
Kijang,69.8,88,40,3.36,35.24,129.21
Fort Nelson,42.8,56,75,6.93,58.81,-122.69
Komsomolsk-na-Amure,44.6,87,32,4.18,50.55,137.02
Kununurra,66.2,82,0,5.82,-15.77,128.74
Jaisalmer,82.76,48,0,8.77,26.91,70.91
Luganville,75.2,100,90,5.82,-15.51,167.18
Mora,49.82,70,12,6.2,61.01,14.54
Cayenne,86.0,74,75,5.82,4.94,-52.33
Medea,80.6,65,75,3.36,36.27,2.77
Husavik,49.55,100,44,6.98,50.56,-96.99
Salalah,78.8,88,75,8.05,17.01,54.1
Gusau,77.18,83,24,3.4,12.17,6.66
Eydhafushi,84.92,97,92,11.23,5.1,73.07
Batagay,32.9,95,92,4.97,67.65,134.64
Fonte Boa,90.59,59,36,3.18,-2.51,-66.09
Poltavka,40.55,84,0,4.18,54.36,71.76
Murray Bridge,56.84,72,0,22.08,-35.12,139.28
North Bend,61.32,72,1,8.05,43.41,-124.22
Ulaangom,35.87,95,92,2.62,49.98,92.07
Luanda,73.4,88,40,6.93,-8.83,13.24
Imbituba,66.2,100,75,2.24,-28.24,-48.67
Taltal,66.56,69,0,2.62,-25.41,-70.49
Ust-Karsk,37.85,84,8,2.39,52.71,118.82
Palmas Bellas,86.0,70,20,5.82,9.23,-80.09
Coutances,71.02,63,0,5.82,49.05,-1.45
Usinsk,51.8,89,92,18.05,66.0,57.56
Aguimes,77.0,65,20,19.46,27.91,-15.45
Wixom,83.26,51,40,3.36,42.52,-83.54
General Roca,61.25,44,76,10.22,-39.03,-67.58
Seoul,65.03,88,0,2.24,37.57,126.98
Nakusp,42.26,92,48,1.72,50.24,-117.8
Plessisville,82.4,65,40,14.99,46.22,-71.77
Acajutla,91.4,70,20,9.17,13.59,-89.83
Maymyo,82.4,74,75,11.41,22.03,96.47
George,80.6,83,75,4.7,6.63,3.35
Hobyo,76.55,85,8,20.29,5.35,48.53
KALAS,77.0,65,0,2.73,33.49,72.96
Coquimbo,60.8,59,0,13.87,-29.95,-71.34
Mendi,61.88,90,44,2.28,9.8,35.1
Serov,60.8,55,92,6.98,59.61,60.57
Orange Cove,74.46,47,1,4.7,36.62,-119.31
Buala,77.63,100,20,4.18,-8.15,159.59
Victoria Point,51.13,81,20,9.17,-27.58,153.3
Rumlang,68.86,60,0,2.39,47.45,8.53
Mandiana,77.45,92,36,3.74,10.62,-8.7
Alofi,73.4,78,44,12.75,-19.06,-169.92
Sabang,79.25,94,80,11.23,13.72,123.58
Sterlibashevo,60.71,45,88,6.76,53.44,55.26
Derzhavinsk,52.7,52,12,10.78,51.1,66.31
Katherine,64.4,45,0,2.24,-14.47,132.26
Oum Hadjer,86.45,57,0,2.39,13.3,19.7
Swellendam,60.8,59,20,9.17,-34.02,20.44
Casa Grande,97.29,30,1,4.41,32.88,-111.76
Balabac,84.65,98,64,6.98,7.99,117.06
Saint-Leu,70.66,68,0,11.41,-21.15,55.28
Nanlong,70.25,99,100,5.75,31.35,106.05
Giresun,58.28,100,92,1.39,40.91,38.39
Nuuk,41.0,75,40,11.41,64.17,-51.74
Moguer,83.3,61,8,6.08,37.27,-6.84
Roald,51.1,87,75,11.41,62.58,6.12
Berlevag,46.4,93,75,5.82,70.86,29.09
Champoton,89.6,62,40,11.41,19.35,-90.72
Huntington,77.5,81,90,12.75,40.87,-73.43
Porto Belo,66.2,93,75,4.7,-27.15,-48.54
Bani,75.56,100,36,1.72,15.89,120.27
Ribnitz-Damgarten,66.2,55,75,5.64,54.24,12.43
Kvarkeno,63.86,46,76,11.68,52.08,59.73
Ngong,71.6,43,40,10.29,-1.37,36.65
Ola,50.0,93,20,4.47,59.58,151.3
Amahai,78.62,100,76,7.54,-3.31,129.0
Toora-Khem,28.67,92,88,2.17,52.47,96.11
Griffith,42.26,60,0,8.43,-34.29,146.06
Kargasok,34.88,82,0,3.74,59.06,80.87
Iracoubo,83.21,70,100,5.86,5.48,-53.21
Mahajanga,75.2,88,0,2.24,-15.72,46.32
Buenos Aires,66.15,77,75,5.82,-34.61,-58.44
Qumaym,70.16,76,0,4.07,32.57,35.73
Brignoles,74.62,78,20,6.93,43.41,6.06
Waslala,81.95,80,12,3.06,13.33,-85.37
Ulaanbaatar,33.8,69,0,2.95,47.92,106.92
Broken Hill,45.86,47,0,13.35,-31.97,141.45
Hopewell,78.24,94,90,9.17,37.3,-77.29
Santa Helena de Goias,78.08,90,44,6.98,-17.81,-50.6
Maniitsoq,40.37,96,0,6.42,65.42,-52.9
Melo,71.42,91,56,4.63,-32.37,-54.17
Bodden Town,86.0,89,40,9.17,19.28,-81.25
Liuhe,43.88,85,88,2.17,42.28,125.73
Ixtapa,84.2,70,90,2.39,20.71,-105.21
Menongue,74.66,23,0,4.41,-14.66,17.68
Aykhal,32.81,85,76,2.73,65.95,111.51
Christiansburg,75.85,80,90,9.17,37.13,-80.41
San Vicente,86.9,74,75,9.17,13.64,-88.78
Anahuac,90.84,74,1,8.05,29.77,-94.68
Praia,71.47,78,75,4.74,-20.25,-43.81
Parry Sound,77.99,71,8,7.99,45.34,-80.04
Akdepe,66.2,42,0,9.17,42.05,59.39
Road Town,86.0,74,20,10.29,18.42,-64.62
Livingston,91.94,50,40,3.36,32.58,-88.19
Naica,76.55,67,0,3.4,27.86,-105.49
Puri,66.65,89,0,4.29,-7.54,112.45
Vanimo,79.07,100,88,12.8,-2.67,141.3
Manta,56.03,91,0,2.17,45.1,24.1
Garissa,80.51,42,0,16.15,-0.46,39.64
Saint-Paul-les-Dax,82.83,51,12,4.7,43.73,-1.05
Taraclia,63.23,61,36,6.76,45.9,28.68
Smoky Lake,39.38,100,80,4.41,54.11,-112.47
Lugo,70.7,50,0,5.64,43.01,-7.56
San Borja,75.38,91,68,2.84,-14.86,-66.75
Yenagoa,77.45,85,88,7.99,4.92,6.26
Nevesinje,68.23,47,0,4.7,43.26,18.11
Ukiah,66.92,48,1,2.62,39.15,-123.21
Raglan,56.57,93,92,4.18,-37.8,174.87
Usolye,53.33,93,92,14.47,59.42,56.68
Pando,68.0,77,20,8.05,-34.72,-55.96
Kutum,87.35,20,76,10.22,14.2,24.66
Azovo,41.0,86,20,4.63,54.7,73.03
Weyburn,48.2,98,100,7.87,49.67,-103.85
Isangel,73.31,100,92,17.6,-19.55,169.27
Bahia Blanca,65.48,63,80,3.4,-38.72,-62.27
Serenje,68.81,32,0,7.09,-13.23,30.22
Salcininkai,57.2,76,0,8.05,54.3,25.38
Khakhea,70.61,15,0,6.87,-24.69,23.5
Yeniseysk,41.81,99,88,4.63,58.45,92.17
Searcy,90.46,55,75,3.4,35.25,-91.74
Sinnamary,81.86,90,100,6.2,5.38,-52.96
Ayan,56.12,81,80,2.28,40.67,33.6
Straumen,51.8,81,75,3.36,63.87,11.3
Swan River,43.97,99,80,3.96,52.11,-101.27
Dalby,51.8,81,0,11.41,-27.18,151.26
Labytnangi,47.39,87,92,19.51,66.66,66.39
San Ramon de la Nueva Oran,81.95,47,0,5.41,-23.13,-64.33
Owosso,85.24,52,40,3.36,43.0,-84.18
Edd,81.23,50,0,3.18,13.93,41.69
Alegrete,65.84,100,44,4.74,-29.79,-55.79
Goure,90.14,35,0,7.76,13.98,10.27
Sayyan,63.23,27,0,5.41,15.17,44.32
Walvis Bay,59.18,99,0,16.93,-22.95,14.51
Kemlya,50.72,65,0,11.01,54.69,45.24
Natal,86.0,55,40,20.8,-5.81,-35.21
Arcachon,83.35,42,0,2.24,44.65,-1.18
Half Moon Bay,64.65,64,20,12.75,37.46,-122.43
Begoro,83.03,71,44,2.84,6.38,-0.38
Bosaso,83.03,100,0,3.18,11.28,49.18
Necochea,71.96,74,0,6.53,-38.55,-58.74
Khash,57.2,20,0,2.95,28.22,61.21
Tuatapere,39.47,100,12,9.22,-46.13,167.69
Xichang,57.65,75,76,1.72,27.88,102.25
Juneau,46.44,58,20,2.84,58.3,-134.42
Lachi,63.59,77,0,2.28,33.38,71.34
Puyang,66.83,82,92,2.73,35.76,115.02
Nanakuli,77.04,81,40,3.36,21.39,-158.15
Nuevitas,87.35,77,12,11.45,21.55,-77.27
Srednekolymsk,34.88,99,88,2.51,67.46,153.71
Salyan,75.11,82,12,14.58,39.59,48.98
Aden,85.01,100,8,3.85,12.79,45.03
Wilmington,77.81,81,90,12.75,39.75,-75.55
Chimbote,67.01,82,8,10.22,-9.08,-78.59
Matay,78.17,39,0,6.98,28.42,30.79
Sylvan Lake,39.2,86,90,3.36,52.31,-114.09
Akcaabat,71.6,73,75,8.05,41.02,39.57
Novi Becej,67.28,56,0,5.75,45.6,20.14
Billings,57.02,71,90,4.74,45.79,-108.5
Petatlan,89.6,62,75,4.7,17.52,-101.27
Najran,86.0,23,0,4.7,17.54,44.22
Borogontsy,38.75,80,88,2.62,62.67,131.17
Sao Borja,66.11,94,88,9.22,-28.66,-56.0
Akot,75.74,85,44,3.62,21.09,77.05
Dudinka,36.59,89,68,6.08,69.41,86.18
Vestmannaeyjar,50.0,81,20,9.17,63.44,-20.27
Abha,71.6,56,20,4.7,18.22,42.5
Lamin,84.2,79,40,10.29,13.35,-16.43
Russell,78.8,44,0,10.29,-33.01,-68.8
Forio,78.17,73,0,5.82,40.73,13.86
Jamalpur,79.88,87,0,2.51,24.93,89.95
Bela Vista,73.58,89,88,9.66,-22.11,-56.53
Biak,78.08,92,80,4.29,-0.91,122.88
Koumac,67.1,90,88,8.21,-20.56,164.28
Cap-Haitien,86.0,55,75,9.17,19.76,-72.2
Itarema,90.5,54,0,19.06,-2.92,-39.92
Talnakh,32.0,100,88,5.97,69.49,88.39
Safranbolu,59.18,95,36,1.72,41.25,32.69
Nantucket,74.8,76,1,8.05,41.28,-70.1
Laguna,82.4,69,75,9.17,27.52,-110.01
Henties Bay,57.56,92,0,10.45,-22.12,14.28
Durazno,69.44,98,56,4.41,-33.38,-56.52
Xiaoweizhai,66.56,99,92,2.84,26.23,107.51
Baryatino,55.4,65,36,6.98,54.31,34.52
Monterey,63.82,72,20,6.93,36.6,-121.89
Lingdong,75.02,92,20,3.18,28.06,114.24
Amboasary,73.4,83,20,13.87,-25.04,46.38
Lebyazhye,55.4,93,75,15.66,59.96,29.42
Talcahuano,53.6,87,90,11.41,-36.72,-73.12
Kaeo,58.19,96,92,7.31,-35.1,173.78
Sao Geraldo do Araguaia,93.65,47,8,4.18,-6.4,-48.55
Tynda,34.7,89,0,3.62,55.15,124.74
Lagos,80.6,83,75,4.7,6.46,3.39
Kalemie,79.88,83,12,6.76,-5.95,29.2
Sambava,73.13,100,76,18.72,-14.27,50.17
Yichun,74.48,97,76,2.51,27.8,114.38
Emerald,62.33,79,0,13.47,-23.53,148.16
Cam Ranh,76.1,100,80,3.74,11.92,109.15
Rio Grande,68.0,94,90,12.75,-32.03,-52.1
Okhotsk,45.05,100,48,8.43,59.36,143.24
Bolivar,87.08,46,1,4.41,37.61,-93.41
Ergani,72.54,34,40,5.82,38.27,39.76
Bolu,54.86,96,68,2.39,40.73,31.61
Tilichiki,40.37,95,92,2.62,60.47,166.1
Marsh Harbour,84.74,97,88,10.89,26.54,-77.06
Garden City,77.72,81,90,12.75,40.73,-73.63
Baruun-Urt,40.28,57,0,4.85,46.68,113.28
Kintinku,75.2,44,0,12.75,-5.89,35.22
Spornoye,53.6,58,0,8.95,50.84,37.29
Panguna,71.96,93,32,1.39,-6.32,155.48
Pran Buri,79.16,100,100,21.85,12.39,99.9
Palmer,53.6,46,75,16.11,-34.85,139.16
Trzic,68.13,88,40,2.24,46.36,14.31
Madimba,80.6,88,40,3.36,4.42,9.93
Chaiyo,76.1,92,76,9.33,14.68,100.47
Zeya,42.26,77,20,3.96,53.74,127.27
Bitlis,53.15,59,0,1.72,38.4,42.11
Torquay,64.4,82,0,8.05,50.47,-3.52
Ternate,78.8,100,20,4.29,14.29,120.72
Archidona,71.96,75,20,3.62,-0.91,-77.81
Brae,53.6,87,92,13.87,60.4,-1.35
Sao Mateus,76.01,95,56,12.01,-18.72,-39.86
Seymchan,33.71,90,36,2.51,62.93,152.39
Moussoro,83.03,51,0,5.3,13.64,16.49
Bindki,76.01,82,0,2.73,26.04,80.58
Shirokiy,48.47,79,0,7.09,53.87,39.17
Hwange,79.25,21,0,9.55,-18.35,26.5
Naberera,68.45,56,0,12.35,-4.2,36.93
Mantua,73.99,69,40,6.93,45.16,10.79
Kant,37.31,58,0,2.39,42.89,74.85
Araouane,96.98,33,0,5.53,18.9,-3.53
Portland,57.27,74,75,3.18,45.52,-122.67
Myitkyina,79.7,89,24,2.39,25.38,97.4
Cazones,89.6,66,90,6.93,20.72,-97.32
Yinchuan,47.21,93,8,2.73,38.48,106.21
Svetlaya,58.82,95,0,12.12,46.54,138.33
Stawell,46.31,63,48,13.02,-37.06,142.77
Gorkovskiy,58.1,69,0,9.89,45.65,41.2
La Palma,80.24,72,20,2.84,5.36,-74.39
Kindu,70.07,100,32,0.94,-2.95,25.92
Kristiansund,50.0,81,75,12.75,63.12,7.73
Karlskrona,60.8,82,0,3.36,56.16,15.59
Tignere,70.07,85,20,2.62,7.37,12.65
Svetlogorsk,51.8,71,20,6.71,53.14,59.15
Tocopilla,63.05,92,0,5.97,-22.09,-70.2
Altay,36.68,96,100,2.62,47.83,88.13
Poshekhonye,50.81,70,64,11.01,58.5,39.12
Yarada,82.4,100,36,5.41,17.65,83.27
Marsa Matruh,80.6,69,75,9.17,31.35,27.25
Banjar,68.27,95,64,2.62,-7.37,108.54
Gabu,42.53,98,80,2.95,34.78,103.0
Urubamba,69.8,19,75,9.17,-13.31,-72.12
Nhulunbuy,68.0,100,0,5.41,-12.18,136.78
Awbari,84.2,31,0,7.54,26.59,12.77
Poum,68.0,49,0,1.83,41.28,20.71
Guasdualito,75.2,100,75,5.82,7.24,-70.73
Keti Bandar,78.98,98,88,12.68,24.14,67.45
Udayagiri,69.8,87,88,7.99,12.32,76.68
Lamu,75.29,99,56,1.39,0.57,122.3
Trapani,77.0,94,0,1.12,38.02,12.54
Kuhdasht,70.43,27,0,3.96,33.53,47.61
Gizo,80.6,69,40,5.82,31.8,34.94
Tamazunchale,71.51,80,68,2.17,21.26,-98.79
Jardim,71.78,100,92,7.2,-21.48,-56.15
Kolpashevo,35.96,92,0,6.42,58.31,82.9
Khani,66.2,93,90,8.05,41.96,42.96
Mama,93.2,56,75,10.29,20.48,-89.36
Olutanga,77.9,100,68,2.51,7.31,122.85
Loreto,73.76,94,48,7.54,-23.27,-57.32
Forestville,59.0,77,75,17.22,48.74,-69.09
Pangnirtung,37.4,55,20,10.29,66.15,-65.72
Balikpapan,78.26,100,24,4.41,-1.24,116.86
Puerto del Rosario,76.21,73,40,10.29,28.5,-13.86
Makakilo City,77.04,81,40,3.36,21.35,-158.09
Abonnema,86.0,74,75,12.75,4.71,6.79
Waingapu,68.0,93,0,3.96,-9.65,120.26
Yanliang,60.8,93,90,2.24,34.66,109.22
Biysk,41.81,92,0,7.2,52.54,85.21
Point Pedro,83.03,95,92,21.3,9.82,80.23
Maltahohe,63.05,12,0,7.76,-24.83,16.98
Boa Vista,91.4,49,75,9.17,2.82,-60.67
Obihiro,49.28,77,0,4.52,42.92,143.2
San Luis,80.6,38,0,5.75,-33.3,-66.34
Pinega,48.2,87,88,7.54,64.7,43.39
Sao Joao da Ponte,93.47,30,36,8.21,-15.93,-44.01
Abbeyleix,62.33,83,92,20.07,52.91,-7.35
Nalut,84.38,27,0,9.22,31.86,10.98
Zunyi,66.11,98,92,8.21,27.73,106.92
Fallon,55.94,71,90,4.7,46.84,-105.12
Northam,64.4,82,0,8.05,51.04,-4.21
Udgir,75.56,87,92,2.62,18.39,77.12
Leshukonskoye,48.11,85,80,8.21,64.9,45.76
Nuevo Progreso,90.88,61,40,18.34,26.05,-97.95
Normandin,82.4,51,75,10.29,48.84,-72.53
Smirnykh,40.64,91,20,4.63,49.74,142.83
Mattru,78.26,90,92,5.53,7.62,-11.83
Kabompo,73.04,33,0,6.76,-13.6,24.21
San Andres,82.31,100,8,13.24,13.32,122.68
Koutsouras,78.98,93,0,17.72,35.03,25.95
Sandakan,78.8,94,75,2.24,5.84,118.12
Obera,67.28,90,12,2.95,-27.49,-55.12
Copiapo,62.6,59,0,12.75,-27.37,-70.33
Tecoanapa,89.6,62,40,6.93,16.99,-99.26
Jambi,79.07,56,12,6.31,-1.6,103.62
Yerbogachen,43.79,99,92,2.62,61.28,108.01
Takoradi,77.81,97,20,7.99,4.89,-1.75
Dubti,82.4,50,20,5.53,11.74,41.09
Oktyabrskiy,51.39,62,0,4.47,55.61,37.97
Ratnagiri,79.97,100,100,9.22,16.98,73.3
Lalsot,80.6,61,20,3.36,26.56,76.33
Kurilsk,57.65,94,0,11.79,45.23,147.88
Conakry,80.6,88,40,9.17,9.52,-13.7
Ilebo,78.17,85,36,1.61,-4.33,20.59
Umm Lajj,86.45,77,0,13.69,25.02,37.27
Ucluelet,55.4,82,40,6.93,48.94,-125.55
Tuensang,67.55,95,24,1.39,26.24,94.81
Dwarka,84.2,79,0,5.82,28.58,77.04
Warri,78.44,87,88,7.43,5.52,5.75
Mackay,35.6,74,90,4.7,53.65,-115.58
Puerto Ayacucho,87.8,62,20,6.93,5.66,-67.63
Smolenskoye,46.94,89,92,5.3,52.31,85.08
Tubuala,86.0,74,40,8.05,9.52,-79.03
Avera,93.65,53,40,10.29,33.19,-82.53
Tokur,35.51,83,44,2.84,53.13,132.9
Coos Bay,61.32,72,1,8.05,43.37,-124.22
Chumikan,45.77,92,56,8.43,54.72,135.31
Maba,74.21,94,80,4.07,24.68,113.59
Linxia,46.31,98,100,2.73,35.6,103.21
Kidal,92.75,31,0,4.07,18.44,1.41
Grand Forks,49.41,66,1,6.93,47.91,-97.06
Inuvik,28.6,86,90,8.05,68.36,-133.71
Millbrook,92.62,47,75,4.7,32.48,-86.36
Green River,75.92,3,1,12.75,41.53,-109.47
Lata,49.55,87,0,2.39,30.78,78.62
Zhigansk,39.56,85,0,10.78,66.77,123.37
Tateyama,58.73,100,76,1.61,36.66,137.31
Tabou,78.44,100,76,9.44,4.42,-7.36
Chernyshevskiy,37.13,93,0,2.28,63.01,112.47
Cao Bang,68.72,99,92,2.84,22.67,106.25
Palestine,89.73,59,40,4.7,31.76,-95.63
Sechura,73.76,78,0,13.47,-5.56,-80.82
Japura,77.99,72,88,2.39,-0.42,102.29
Samdrup Jongkhar,67.91,89,8,2.17,26.8,91.5
Anloga,80.6,83,20,12.75,5.79,0.9
Great Bend,89.38,50,20,17.22,38.36,-98.78
Mirnyy,53.06,67,48,11.79,56.57,36.46
Salinopolis,84.38,87,20,17.05,-0.61,-47.36
Belyy Yar,46.4,87,40,6.71,53.6,91.39
Elizabethtown,75.81,87,90,11.41,40.15,-76.6
Pokosnoye,44.15,97,88,3.74,55.53,101.05
Adre,82.76,38,56,6.64,13.47,22.2
Qasigiannguit,32.0,97,20,4.7,68.82,-51.19
Ampanihy,72.95,47,0,9.89,-24.69,44.75
Newport,65.75,72,0,10.29,51.59,-3.0
Marinette,86.58,57,1,12.75,45.1,-87.63
Maningrida,73.31,78,0,8.99,-12.05,134.23
Los Mochis,78.8,78,90,16.11,25.79,-108.99
Bubaque,86.0,66,20,3.36,11.28,-15.83
Lynn Haven,85.87,65,75,10.29,30.25,-85.65
Port Keats,70.43,67,0,7.2,-14.25,129.55
Ust-Tsilma,47.39,100,92,10.45,65.44,52.15
Licata,75.2,73,0,3.36,37.11,13.95
Ombessa,77.45,78,24,4.74,4.6,11.26
Micheweni,78.35,99,0,13.8,-4.97,39.83
Curaca,95.9,27,0,10.67,-8.99,-39.91
Dukat,60.98,59,36,1.72,42.44,22.31
Paramonga,61.88,93,24,14.14,-10.68,-77.82
Sarangani,81.68,100,56,5.08,5.4,125.46
Barra do Garcas,82.4,69,75,2.24,-15.89,-52.26
Atocha,67.39,68,75,2.24,-1.22,-78.6
Nishihara,71.6,94,75,5.82,35.74,139.53
Fort Dodge,90.41,48,40,10.29,42.5,-94.17
Soyo,77.09,73,0,6.53,-6.13,12.37
Itoman,82.4,74,20,3.36,26.12,127.67
Lewiston,61.3,44,1,4.7,46.42,-117.02
Kirensk,38.66,90,32,2.39,57.78,108.12
Vaasa,48.2,93,0,3.36,63.1,21.62
Verkhnevilyuysk,39.2,75,36,6.08,63.45,120.31
Ambagarh Chauki,75.11,94,92,3.18,20.78,80.75
Porosozero,45.68,100,92,5.41,62.72,32.71
Shenjiamen,80.96,94,20,11.79,29.96,122.3
Mahibadhoo,83.66,100,88,13.8,3.78,72.97
Ormond Beach,89.17,70,40,8.05,29.29,-81.06
Puerto Madryn,63.86,49,0,11.01,-42.77,-65.04
Port-Cartier,44.6,93,90,10.29,50.03,-66.88
Sikasso,82.4,81,8,3.96,11.32,-5.68
Upata,78.71,90,64,5.41,8.02,-62.41
Pitimbu,84.2,62,40,14.99,-7.47,-34.81
Kawalu,64.31,99,80,1.83,-7.38,108.21
Lucapa,74.57,75,36,4.29,-8.42,20.74
Iki-Burul,60.8,55,0,15.66,45.82,44.65
Wajima,69.26,98,44,7.09,37.4,136.9
Iquitos,42.8,319,75,3.36,-3.75,-73.25
Salento,77.02,69,20,8.05,4.64,-75.57
Atasu,49.55,52,0,11.9,48.68,71.64
The Valley,86.05,74,40,12.75,18.22,-63.06
Saint Anthony,66.99,5,1,4.07,43.97,-111.68
Caravelas,76.46,98,48,15.03,-17.73,-39.27
Katangli,47.75,100,24,6.98,51.71,143.23
Nata,77.22,78,20,4.7,34.78,32.57
Comodoro Rivadavia,66.2,25,40,27.51,-45.87,-67.48
Aleksandrovka,63.05,91,0,14.81,46.65,38.4
Aguas Vermelhas,82.94,51,12,10.11,-15.75,-41.46
Lithakia,77.58,65,0,4.7,37.72,20.83
Talara,62.6,290,0,19.46,-4.58,-81.27
Moron,84.2,62,40,2.84,10.49,-68.2
Uddiawan,68.36,99,68,1.61,16.56,121.15
Santo Antonio do Ica,93.11,53,8,3.74,-3.1,-67.94
Sur,83.3,89,0,3.06,22.57,59.53
Saint-Augustin,83.21,39,0,5.82,44.83,-0.61
Kushiro,47.12,78,0,4.18,43.11,144.15
San Rafael,76.64,22,8,10.78,-34.61,-68.33
Itatskiy,35.96,89,44,5.3,56.07,89.04
Terrace,48.2,70,75,2.24,54.52,-128.61
Bama,71.6,99,92,7.65,24.14,107.25
Kwale,77.0,73,20,5.82,-4.17,39.45
Atagay,44.6,97,80,5.08,55.1,99.39
Nyrob,51.8,98,92,18.28,60.74,56.73
Kisiwani,68.72,56,0,5.41,-4.13,37.95
Bambui,63.32,95,24,2.28,6.01,10.23
Ostrovskoye,47.03,84,0,8.21,57.81,42.24
Mendeleyevsk,57.2,87,75,8.77,55.89,52.31
Yelan,54.05,95,92,19.28,50.95,43.74
Tara,72.61,94,0,2.24,33.0,130.15
Lac du Bonnet,50.63,99,20,5.75,50.25,-96.06
Kilindoni,77.81,100,0,11.45,-7.91,39.67
Cabras,68.0,72,75,11.41,5.5,-75.6
Wexford,68.99,96,90,11.41,40.63,-80.06
Kathu,64.76,12,0,9.22,-27.7,23.05
Ekhabi,45.68,100,88,3.29,53.51,142.97
Tromso,42.8,87,20,3.36,69.65,18.96
Manjakandriana,57.2,62,0,11.41,-18.92,47.81
Aniva,42.8,93,64,4.47,46.71,142.53
Rancho Palos Verdes,79.34,50,5,6.93,33.75,-118.37
Port Hawkesbury,80.6,57,90,10.29,45.62,-61.36
Den Helder,63.45,72,90,13.87,52.96,4.76
Hella,50.0,81,20,9.17,63.84,-20.4
Chapaevsk,57.2,87,40,11.18,52.98,49.71
Bartow,90.95,59,75,6.93,27.9,-81.84
San Blas,80.6,65,75,2.17,21.54,-105.29
Lakes Entrance,48.2,93,20,4.63,-37.88,147.99
Itaituba,95.0,47,40,8.05,-4.26,-55.99
Saint-Francois,78.8,31,0,2.62,46.42,3.91
Aitape,74.57,100,80,6.53,-3.15,142.36
Mukhen,50.9,63,64,5.75,48.19,136.14
George Town,75.2,94,75,11.45,5.42,100.33
Yarmouth,66.97,72,0,9.17,50.71,-1.5
Srivardhan,76.01,91,92,3.29,18.03,73.02
Flin Flon,37.4,93,90,8.05,54.77,-101.88
Dolinsk,42.8,93,44,4.47,47.32,142.8
Jacareacanga,95.0,59,20,4.7,-6.22,-57.76
Gorontalo,73.31,97,92,1.83,0.54,123.06
Verkhnyaya Inta,51.17,81,92,8.66,65.99,60.32
Cordoba,69.71,44,8,2.17,5.59,-73.79
Jumla,35.15,88,0,2.73,29.28,82.18
Urengoy,32.9,73,48,6.42,65.96,78.37
Denham Springs,93.02,47,1,5.82,30.49,-90.96
Los Palacios,82.58,92,36,7.43,22.59,-83.25
Kerema,70.34,98,92,1.5,-7.96,145.78
Yazoo City,91.72,55,0,6.93,32.86,-90.41
Giyani,75.56,22,0,8.66,-23.32,30.73
Nanchong,70.79,98,92,4.63,30.8,106.08
Huacho,72.59,63,24,7.43,-11.11,-77.61
Abu Dhabi,95.94,39,0,6.93,24.47,54.37
Ventnor City,80.53,76,75,9.17,39.34,-74.48
Chiredzi,76.64,34,0,8.99,-21.05,31.67
Carutapera,88.7,62,8,15.37,-1.2,-46.02
Vityazevo,51.8,87,0,9.89,44.99,37.26
Aklavik,28.13,86,75,6.93,68.22,-135.01
Carolina,88.59,57,75,11.41,18.38,-65.96
Chapais,75.2,60,90,17.22,49.78,-74.86
Prince Rupert,51.8,76,75,4.7,54.32,-130.32
Duobao,74.66,89,92,8.43,30.67,112.69
Laem Sing,73.31,100,92,6.98,12.48,102.07
Pimentel,96.35,38,48,7.09,-3.7,-45.5
Athabasca,39.02,98,88,4.63,54.72,-113.29
Effium,81.32,85,68,4.29,6.63,8.06
Turgenevo,55.76,64,24,12.68,54.84,46.32
Fukue,75.2,73,40,14.99,35.03,136.69
Tiznit,73.67,83,20,4.63,29.7,-9.73
Stokmarknes,48.2,76,75,1.12,68.56,14.91
Sal Rei,81.61,69,40,19.46,16.18,-22.92
Sydney,45.9,76,0,3.36,-33.85,151.22
Sangar,36.95,79,44,1.16,63.92,127.47
Port-Gentil,78.8,83,75,9.17,-0.72,8.78
Gambo,81.41,82,8,3.06,11.96,9.63
Winnemucca,71.06,5,1,3.36,40.97,-117.74
Saiha,71.51,99,92,1.61,22.49,92.98
Scarborough,69.8,68,12,11.41,54.28,-0.41
Elizabeth City,82.71,76,20,10.29,36.3,-76.22
Ntcheu,68.63,44,0,4.74,-14.82,34.64
Oxapampa,56.84,100,56,1.95,-10.58,-75.4
Danielskuil,60.53,13,0,10.22,-28.19,23.54
Basco,88.99,45,1,4.7,40.33,-91.2
Beisfjord,46.4,87,90,13.87,68.38,17.6
Totness,90.48,57,40,14.99,33.74,-80.8
Mujiayingzi,43.16,79,68,2.62,42.12,118.78
Magadan,50.0,93,20,4.47,59.56,150.8
Gwadar,76.28,100,0,8.21,25.12,62.33
Amapa,91.4,55,40,8.05,15.09,-87.97
Slave Lake,39.2,80,90,8.05,55.28,-114.77
Carmen,70.7,98,92,2.17,7.2,124.8
Bua Yai,75.56,89,88,8.66,15.59,102.43
Baracoa,82.49,99,68,3.96,20.35,-74.5
Taua,78.71,93,80,7.76,8.79,-12.72
Santa Isabel,75.67,54,20,3.36,4.71,-75.1
Vera Cruz,66.2,88,75,13.87,-22.22,-49.82
Omsukchan,28.76,97,64,2.62,62.53,155.8
Katobu,78.8,100,76,4.41,-4.94,122.53
Ocampo,79.25,94,80,11.23,13.56,123.37
Carballo,70.59,69,75,4.7,43.21,-8.69
Mbarara,66.11,72,0,4.29,-0.61,30.65
Mangrol,79.7,59,36,5.3,25.33,76.51
Suntar,34.88,75,0,3.74,62.16,117.65
Piacabucu,87.89,48,0,16.82,-10.41,-36.43
Vangaindrano,66.56,91,0,4.18,-23.35,47.6
Sale,66.92,77,20,6.93,53.42,-2.32
Ipixuna,86.0,74,0,12.75,-1.76,-48.8
Zhoucheng,74.66,97,56,6.53,31.35,119.33
Galle,86.67,63,1,5.82,29.74,-97.91
Waddan,80.78,39,12,9.44,29.16,16.14
Ucar,65.21,79,0,5.41,40.51,47.65
Kilimatinde,70.88,52,0,6.64,-5.75,34.82
Mazagao,93.2,49,40,11.41,-0.12,-51.29
Espanola,80.06,63,0,9.44,46.27,-81.77
San,84.83,79,0,4.41,13.3,-4.9
Casper,82.04,20,1,6.93,42.87,-106.31
Atherton,66.92,77,20,6.93,53.52,-2.49
Goderich,76.55,89,12,9.66,43.74,-81.71
Ayr,62.47,88,40,23.04,55.46,-4.63
Luau,81.14,34,32,4.29,-10.7,22.23
Miri,77.09,71,8,2.39,10.31,9.75
Mugumu,59.72,97,24,3.96,-1.84,34.67
Ketchikan,53.65,66,1,13.87,55.34,-131.65
Euclid,74.19,69,90,6.93,41.59,-81.53
Fare,77.63,100,92,19.06,-16.7,-151.02
Bhadrachalam,75.11,90,88,6.08,17.67,80.89
Dourbali,81.86,69,0,4.97,11.81,15.86
Hornepayne,66.11,97,92,6.76,49.22,-84.78
Harwich,75.88,69,1,10.29,41.69,-70.08
Yershichi,54.77,66,20,8.55,53.67,32.75
Seaside,57.47,69,1,12.91,45.99,-123.92
Lillooet,60.8,55,75,3.36,50.69,-121.94
Turinsk,58.46,57,44,10.0,58.04,63.7
Camargo,79.7,51,0,4.29,27.69,-105.17
Veraval,74.01,46,0,4.7,49.65,0.71
Mount Pleasant,91.15,43,1,5.82,33.16,-94.97
Setermoen,39.2,93,40,4.7,68.86,18.35
Zyryanka,36.5,100,92,2.73,65.73,150.89
Iskateley,50.18,95,92,14.47,67.68,53.15
Miandrivazo,70.43,58,0,2.39,-19.53,45.46
Kapit,72.86,91,100,2.17,2.02,112.94
Manitouwadge,59.0,72,75,12.75,49.12,-85.84
Jiazi,77.9,99,56,8.99,19.61,110.49
Damaturu,83.03,70,0,2.28,11.75,11.96
Tessalit,93.92,20,0,6.2,20.2,1.01
Kudahuvadhoo,81.86,100,48,10.45,2.67,72.89
Teocuitatlan de Corona,75.2,57,75,9.17,20.09,-103.38
Zholymbet,46.76,62,0,9.44,51.74,71.71
Hammerfest,44.6,93,75,11.41,70.66,23.68
Ambilobe,75.11,64,0,13.24,-13.19,49.05
Christchurch,42.8,93,8,9.17,-43.53,172.64
Buzmeyin,82.4,17,40,6.93,38.05,58.21
Charlestown,76.24,71,1,6.93,41.38,-71.64
Kimbe,75.65,100,88,5.75,-5.56,150.15
Hay River,51.8,34,40,12.75,60.82,-115.79
Guozhen,76.1,96,80,1.72,29.3,113.14
Verkh-Usugli,38.12,79,0,0.94,52.7,115.17
Springbok,49.1,62,0,6.42,-29.67,17.88
Ozinki,64.49,82,8,6.2,51.2,49.73
Sile,79.74,20,1,8.05,35.56,-106.37
Havre-Saint-Pierre,44.6,93,90,5.82,50.23,-63.6
Manicore,97.52,42,12,2.95,-5.81,-61.3
Sorland,48.2,87,75,17.22,67.67,12.69
Fukuma,73.4,83,75,3.36,33.77,130.47
Kurchum,46.85,87,0,10.78,48.57,83.65
Ozerne,53.87,80,8,4.63,50.18,28.74
Liwale,78.8,40,48,6.64,-9.8,37.92
Mikumi,72.68,46,0,4.63,-7.4,36.98
Rolante,74.62,78,75,18.34,-29.65,-50.58
Zonguldak,64.76,100,44,7.2,41.25,31.83
Gannan,42.35,78,0,3.06,47.92,123.49
Boende,80.24,76,36,2.17,-0.28,20.88
Sao Miguel do Araguaia,89.51,78,0,4.52,-13.28,-50.16
Kladanj,62.6,72,0,3.36,44.23,18.69
Storforshei,46.4,87,75,4.7,66.4,14.52
Mosquera,69.8,37,20,9.17,4.71,-74.23
Masvingo,69.53,19,0,9.89,-20.08,30.83
Plouzane,66.58,82,90,17.22,48.38,-4.62
Riohacha,87.8,70,40,13.87,11.54,-72.91
Hirara,84.56,96,56,10.78,24.8,125.28
Kibungo,66.2,72,40,10.29,-2.14,30.55
Epe,67.3,55,0,5.08,52.18,7.04
Norwich,69.78,52,0,14.99,52.63,1.29
Razdolinsk,40.73,94,68,5.41,58.42,94.62
Halifax,77.94,69,20,11.41,44.65,-63.58
Bonnyville,41.0,75,75,4.7,54.27,-110.74
Tianpeng,73.76,97,88,8.21,28.88,112.34
Thinadhoo,83.3,100,92,12.68,0.53,72.93
Todos Santos,83.01,78,90,6.93,23.45,-110.23
Slovenj Gradec,68.94,82,0,1.12,46.51,15.08
Qandala,76.19,94,0,1.5,11.47,49.87
Millau,73.4,56,0,10.29,44.1,3.08
Kiruna,42.8,81,0,6.93,67.86,20.23
Abnub,80.6,44,0,12.75,27.27,31.15
Sakaraha,68.72,25,0,4.74,-22.91,44.53
Beausejour,48.2,76,75,12.75,50.06,-96.51
Trelew,69.71,28,0,13.24,-43.25,-65.31
Antofagasta,60.8,63,20,11.41,-23.65,-70.4
Tefe,91.4,55,40,2.24,-3.35,-64.71
Vuktyl,52.97,96,92,12.57,63.86,57.31
Grand-Santi,89.6,57,48,2.95,4.27,-54.38
Yelkhovka,57.2,87,40,11.18,53.87,50.29
Muroto,72.41,100,92,8.55,33.37,134.14
Dangara,72.77,86,44,2.17,11.43,7.3
Mountain Home,64.04,35,1,3.36,43.13,-115.69
Xingcheng,52.61,92,56,3.06,40.62,120.71
Ornskoldsvik,48.0,66,0,9.17,63.29,18.72
Hudson Bay,43.16,97,92,3.51,52.86,-102.4
Haldwani,62.6,92,0,2.39,29.22,79.53
Paramirim,90.05,25,48,7.65,-13.44,-42.24
Kalmunai,77.18,83,68,3.29,7.42,81.82
Arvi,75.83,83,8,2.84,21.0,78.23
Hetauda,69.8,88,20,3.36,27.43,85.03
Sembakung,74.75,95,56,2.51,3.82,117.25
Doha,93.2,71,0,4.7,25.29,51.53
Kasongo,80.51,66,48,1.95,-4.43,26.67
Ouargaye,92.3,44,0,9.89,11.5,0.06
Burgersdorp,57.74,17,8,13.02,-30.99,26.32
Filadelfia,76.37,88,0,7.99,-22.35,-60.04
Tooele,78.46,34,1,2.95,40.53,-112.3
Segou,75.65,97,76,5.97,12.41,-12.29
Nagato,73.4,78,20,2.24,34.35,131.14
Springdale,88.2,45,75,4.29,36.19,-94.13
Alyangula,72.95,100,0,5.3,-13.85,136.42
Muyezerskiy,47.3,81,80,3.51,63.93,31.65
Xinyu,75.83,95,44,3.18,27.8,114.93
Mbanza-Ngungu,76.64,74,44,5.08,-5.25,14.87
Liverpool,67.08,77,40,13.87,53.41,-2.98
Darovskoy,44.96,88,0,6.98,58.77,47.96
Payo,79.34,51,12,8.43,-3.75,103.64
Nipawin,41.0,100,90,9.17,53.36,-104.02
Burnie,55.31,91,0,23.09,-41.05,145.91
Iwaki,63.5,97,8,4.18,37.05,140.89
Chimbarongo,57.2,76,90,5.82,-34.71,-71.04
Zaria,79.52,71,12,2.51,11.11,7.72
San Jeronimo,37.4,328,40,6.93,-13.65,-73.37
Yasenskaya,60.71,100,0,10.11,46.36,38.27
Sendafa,49.1,88,8,2.73,9.16,39.02
Mackenzie,39.2,93,90,2.24,55.34,-123.09
Roura,86.0,74,75,5.82,4.73,-52.33
Sola,57.2,82,75,12.75,58.89,5.65
Balarampur,80.33,80,12,4.97,23.1,86.22
Bhag,79.79,70,0,3.06,29.04,67.82
Bassila,83.39,70,24,5.53,9.0,1.66
Shelburne,81.1,51,40,9.17,44.08,-80.2
Beruwala,81.77,94,80,13.35,6.48,79.98
Onega,53.96,93,88,14.36,63.91,38.09
Fort Frances,53.06,71,75,11.41,48.61,-93.4
Narrabri,42.8,81,0,6.98,-30.33,149.78
Palu,68.36,92,80,1.28,-0.9,119.87
Kaili,68.72,90,76,1.5,-3.46,120.21
Osoyoos,59.0,51,20,4.7,49.03,-119.47
Santa Marta,89.6,66,75,9.17,11.24,-74.21
Latung,70.79,94,8,2.73,-8.45,120.42
Makueni,70.25,54,0,11.56,-1.8,37.62
Haapiti,75.2,78,75,10.29,-17.57,-149.87
Artemisa,86.0,79,75,12.75,22.81,-82.76
Pangkalanbuun,74.75,85,32,4.74,-2.68,111.62
Poso,76.91,100,56,1.61,-1.4,120.75
Shubarkuduk,71.33,26,80,14.03,49.15,56.49
Paragominas,95.27,46,24,4.74,-3.0,-47.35
Jizan,89.6,59,40,9.17,16.89,42.56
Yairipok,70.7,93,12,1.83,24.67,94.07
Auch,79.66,48,0,11.41,43.65,0.59
Peniche,71.65,88,40,8.05,39.36,-9.38
Bela,71.6,80,0,3.62,26.23,66.31
Xining,41.45,95,88,2.39,36.62,101.77
Kuznechnoye,54.95,100,92,12.01,61.12,29.87
Kerman,78.8,7,0,6.93,30.29,57.06
Buritis,94.55,26,48,3.62,-15.62,-46.42
Concordia,77.0,57,40,6.93,-31.4,-58.02
Barcelos,61.77,100,75,9.17,41.53,-8.62
Lichinga,62.96,53,0,5.19,-13.3,35.25
Lazaro Cardenas,78.8,50,75,4.7,28.39,-105.62
Saint-Georges,77.18,70,48,8.1,46.12,-70.67
Cabinda,77.0,83,75,9.17,-5.56,12.19
Mitzic,74.75,93,48,2.84,0.78,11.55
Progreso,68.0,82,75,6.93,-34.68,-56.22
Ritchie,60.8,8,0,6.93,-29.03,24.6
Syracuse,78.48,64,75,10.29,43.05,-76.15
Diebougou,81.86,91,8,2.95,10.97,-3.25
Mana,59.77,77,0,1.12,43.52,20.24
Hatillo,84.2,88,5,3.36,18.49,-66.83
Preobrazheniye,50.45,55,0,3.96,42.9,133.91
Galeana,68.18,87,12,3.4,24.83,-100.08
Orotukan,30.29,86,32,2.39,62.26,151.67
Bukama,79.7,59,0,2.84,-9.2,25.85
Djibo,87.62,68,0,4.18,14.1,-1.63
Kangaatsiaq,37.4,100,8,8.1,68.31,-53.46
Amloh,74.03,77,0,4.52,30.61,76.23
Cururupu,91.04,53,0,13.8,-1.82,-44.87
Lluta,71.6,13,0,10.29,-16.02,-72.01
Kangasala,50.81,87,75,11.41,61.46,24.07
Van Wert,83.52,54,40,4.7,40.86,-84.58
Darlowo,66.56,94,24,5.3,54.42,16.41
Cutlerville,85.23,51,40,3.85,42.84,-85.66
Oneonta,76.91,60,80,5.53,42.45,-75.06
Kyaukse,82.4,74,75,11.41,21.6,96.13
Tavda,52.88,66,20,14.47,58.04,65.27
Vanavara,43.88,100,92,4.29,60.35,102.28
Malanje,73.13,71,8,5.97,-9.54,16.35
Hope,53.33,87,75,4.7,49.38,-121.43
Nautla,82.22,100,64,1.16,20.22,-96.78
Chimore,69.98,100,92,3.74,-16.98,-65.13
Ust-Kulom,47.93,91,48,11.23,61.69,53.69
Beya,41.63,100,92,1.72,53.05,90.92
Kailua,76.95,79,90,11.41,21.39,-157.74
Yangambi,79.16,85,32,2.17,0.77,24.47
Nagua,84.2,83,75,6.93,19.37,-69.85
Evensk,44.87,100,92,9.22,61.92,159.24
Colmar,74.03,49,0,3.36,48.08,7.36
Phuthaditjhaba,60.44,15,0,9.1,-28.53,28.82
Huejuquilla el Alto,67.19,100,56,2.62,22.63,-103.9
Never,37.04,87,0,3.06,53.98,124.16
Betanzos,70.48,69,75,4.7,43.28,-8.21
Natori,59.81,95,8,5.41,38.17,140.88
Zapolyarnyy,46.4,87,75,18.34,69.43,30.82
Khromtau,66.65,35,88,10.67,50.26,58.44
Kibala,82.4,74,20,4.63,9.11,18.35
Finote Selam,59.72,94,88,2.39,10.7,37.27
Ciudad Bolivar,87.8,62,80,11.45,8.12,-63.55
Aswan,89.6,25,0,8.05,24.09,32.9
Panama City,89.06,65,75,10.29,30.16,-85.65
Hantsport,78.8,65,20,12.75,45.06,-64.18
Maracacume,86.9,93,20,9.78,-2.04,-45.96
Durban,78.82,53,12,12.75,43.54,0.58
Kulhudhuffushi,84.83,97,76,12.24,6.62,73.07
Lebedinyy,41.45,95,92,4.85,58.52,125.52
Ginda,49.55,87,0,2.39,30.69,78.49
Namtsy,43.34,71,76,6.2,62.72,129.66
Tacarigua,87.8,66,40,8.32,10.64,-61.36
Beaufort,80.6,78,75,2.24,5.36,115.76
Jinchang,43.43,94,12,3.18,38.52,102.19
Inyonga,74.93,37,0,4.63,-6.72,32.06
Neftcala,75.11,82,12,14.58,39.37,49.25
Terrace Bay,59.0,72,75,12.75,48.78,-87.1
Leh,15.26,84,0,2.17,34.16,77.58
Valle de Allende,76.28,54,0,5.64,26.94,-105.39
Wanxian,67.1,98,92,2.39,30.8,108.39
Guadalupe Victoria,80.6,65,75,6.64,21.68,-105.33
Grand Bank,66.2,77,40,23.04,47.1,-55.77
Bijar,57.83,35,0,5.97,35.87,47.6
Inirida,82.76,74,68,3.96,3.87,-67.92
Rincon,89.15,65,75,16.11,32.3,-81.24
Lokosovo,38.39,90,76,7.2,61.13,74.84
Lensk,41.45,100,32,2.51,60.71,114.91
Satka,62.96,40,76,9.78,55.04,59.03
Jacksonville,88.86,59,75,12.75,30.33,-81.66
Kaseda,79.61,100,36,8.77,31.42,130.32
Santa Cruz de la Palma,73.4,69,75,5.82,28.68,-17.76
Colares,79.72,34,0,12.75,38.8,-9.45
Tikamgarh,76.46,67,44,4.52,24.74,78.83
New Glasgow,77.45,68,0,9.89,45.59,-62.65
Snyder,80.06,66,75,9.17,32.72,-100.92
Namie,65.48,100,76,4.18,37.52,140.86
Andra,49.46,74,68,12.46,62.52,65.89
Rabaul,75.38,100,88,2.95,-4.2,152.17
Pinsk,57.83,65,0,6.2,52.11,26.1
Newton,88.65,43,1,10.29,41.7,-93.05
Cabo Rojo,84.2,93,5,3.36,18.09,-67.15
Trincomalee,80.78,73,88,15.82,8.58,81.23
West Wendover,73.04,4,1,5.82,40.74,-114.07
Rathkeale,62.6,88,75,16.11,52.52,-8.94
Surgut,48.2,70,75,4.47,61.25,73.4
Onda,77.0,83,75,6.93,39.96,-0.26
San Isidro,70.07,93,44,2.62,16.74,121.63
Uttarkashi,49.55,87,0,2.39,30.73,78.44
Pochutla,89.6,55,20,5.97,15.74,-96.47
Santa Isabel do Rio Negro,85.91,75,44,5.53,-0.41,-65.02
Oudtshoorn,57.2,76,0,3.36,-33.59,22.2
Tay Ninh,74.03,97,92,4.63,11.3,106.1
Karasjok,48.2,70,75,27.51,69.47,25.52
Plettenberg Bay,62.78,90,56,6.42,-34.05,23.37
Victoria,79.81,88,75,3.36,5.28,115.24
Salinas,63.77,67,1,8.05,36.67,-121.66
Muravlenko,37.67,89,48,8.88,63.79,74.5
Simao,67.01,88,88,1.72,22.76,100.79
Praia da Vitoria,75.2,69,20,8.21,38.73,-27.07
Corinto,84.83,66,76,7.87,-18.36,-44.46
Orsha,57.2,66,32,12.01,54.51,30.43
Jati,77.99,76,0,10.56,24.35,68.27
Cabedelo,82.4,65,40,16.11,-6.97,-34.84
Gushikawa,82.4,74,20,3.36,26.35,127.87
Nurota,68.0,20,0,2.24,40.56,65.69
Dembi Dolo,66.29,91,32,3.85,8.53,34.8
Eyemouth,64.4,88,92,10.29,55.87,-2.09
Grand Gaube,73.4,78,40,6.93,-20.01,57.66
Benguela,68.63,100,0,4.29,-12.58,13.4
Matiguas,78.8,65,40,9.17,12.84,-85.46
Harrisonville,86.95,43,1,6.93,38.65,-94.35
Khvalynsk,58.46,84,88,14.03,52.5,48.11
Port Hardy,51.8,81,40,5.82,50.7,-127.42
Sampit,77.99,77,88,4.85,-2.54,112.95
Arauca,75.2,100,75,5.82,7.08,-70.76
Cardston,53.6,43,1,18.34,49.2,-113.32
Tazovskiy,37.85,85,92,3.96,67.47,78.7
Yamethin,77.9,90,36,10.0,20.43,96.14
Vagur,49.55,100,92,8.77,61.47,-6.81
Antalaha,70.43,94,68,11.68,-14.9,50.28
Banikoara,84.2,75,0,4.18,11.3,2.44
Nago,72.39,69,40,6.93,45.88,10.89
Kloulklubed,77.0,94,75,8.21,7.04,134.26
Ngerengere,77.0,65,20,5.75,-6.76,38.13
Kalmar,60.8,55,0,5.82,56.66,16.36
Merauke,71.15,100,8,13.24,-8.49,140.4
Rutana,76.28,46,76,5.08,-3.93,29.99
Sorong,80.24,100,44,11.9,-0.86,131.25
Chicama,64.4,82,90,14.99,-7.84,-79.15
Rozsypne,53.51,62,0,10.0,48.13,38.57
Glarus,68.72,68,0,6.93,47.04,9.07
Humaita,78.8,31,20,4.7,-24.93,-65.37
North Platte,91.04,34,1,10.29,41.12,-100.77
Morro Bay,66.34,60,40,3.36,35.37,-120.85
Affery,75.65,94,24,3.74,6.32,-3.95
Prachuap Khiri Khan,74.66,93,92,7.65,11.81,99.79
Mazara del Vallo,77.0,94,0,1.12,37.65,12.59
Parrita,78.8,69,40,6.93,9.52,-84.33
Zhanakorgan,68.72,37,32,12.68,43.91,67.25
Auka,89.6,66,75,9.17,14.93,-83.83
Mut,67.46,43,12,4.63,36.64,33.44
Camden,76.96,93,90,8.43,39.94,-75.12
Evanston,88.63,45,1,5.82,42.04,-87.69
Erzin,79.68,61,0,14.99,36.95,36.2
NEDJO,61.88,90,44,2.28,9.5,35.5
Herat,53.69,55,0,2.84,34.35,62.22
